[{"idsensore":"100","tipologia":"Precipitazione","unit_dimisura":"mm","idstazione":"52","nomestazione":"Grosio Diga Fusino","quota":"1220","provincia":"SO","datastart":"2002-01-01T00:00:00.000","storico":"N","cgb_nord":"5131141","cgb_est":"595908","lng":"10.245970197827939","lat":"46.327055775545546","location":{"latitude":"46.327055775545546","longitude":"10.245970197827939","human_address":"{\"address\": \"\", \"city\": \"\", \"state\": \"\", \"zip\": \"\"}"},":@computed_region_6hky_swhk":"3",":@computed_region_ttgh_9sm5":"3"}
,{"idsensore":"101","tipologia":"Altezza Neve","unit_dimisura":"cm","idstazione":"52","nomestazione":"Grosio Diga Fusino","quota":"1220","provincia":"SO","datastart":"2001-12-01T00:00:00.000","storico":"N","cgb_nord":"5131141","cgb_est":"595908","lng":"10.245970197827939","lat":"46.327055775545546","location":{"latitude":"46.327055775545546","longitude":"10.245970197827939","human_address":"{\"address\": \"\", \"city\": \"\", \"state\": \"\", \"zip\": \"\"}"},":@computed_region_6hky_swhk":"3",":@computed_region_ttgh_9sm5":"3"}
,{"idsensore":"10373","tipologia":"Precipitazione","unit_dimisura":"mm","idstazione":"687","nomestazione":"Ferno v.Di Dio","quota":"215","provincia":"VA","datastart":"2007-08-13T00:00:00.000","storico":"N","cgb_nord":"5051773","cgb_est":"481053","lng":"8.756970445453431","lat":"45.61924377994763","location":{"latitude":"45.61924377994763","longitude":"8.756970445453431","human_address":"{\"address\": \"\", \"city\": \"\", \"state\": \"\", \"zip\": \"\"}"},":@computed_region_6hky_swhk":"1",":@computed_region_ttgh_9sm5":"1"}
,{"idsensore":"10376","tipologia":"Precipitazione","unit_dimisura":"mm","idstazione":"706","nomestazione":"Lecco v.Sora","quota":"272","provincia":"LC","datastart":"2008-07-22T00:00:00.000","storico":"N","cgb_nord":"5078987","cgb_est":"531045","lng":"9.399950344681852","lat":"45.86374884127965","location":{"latitude":"45.86374884127965","longitude":"9.399950344681852","human_address":"{\"address\": \"\", \"city\": \"\", \"state\": \"\", \"zip\": \"\"}"},":@computed_region_6hky_swhk":"10",":@computed_region_ttgh_9sm5":"10"}
,{"idsensore":"10377","tipologia":"Temperatura","unit_dimisura":"°C","idstazione":"706","nomestazione":"Lecco v.Sora","quota":"272","provincia":"LC","datastart":"2008-07-22T00:00:00.000","storico":"N","cgb_nord":"5078987","cgb_est":"531045","lng":"9.399950344681852","lat":"45.86374884127965","location":{"latitude":"45.86374884127965","longitude":"9.399950344681852","human_address":"{\"address\": \"\", \"city\": \"\", \"state\": \"\", \"zip\": \"\"}"},":@computed_region_6hky_swhk":"10",":@computed_region_ttgh_9sm5":"10"}
,{"idsensore":"10381","tipologia":"Umidità Relativa","unit_dimisura":"%","idstazione":"706","nomestazione":"Lecco v.Sora","quota":"272","provincia":"LC","datastart":"2008-07-22T00:00:00.000","storico":"N","cgb_nord":"5078987","cgb_est":"531045","lng":"9.399950344681852","lat":"45.86374884127965","location":{"latitude":"45.86374884127965","longitude":"9.399950344681852","human_address":"{\"address\": \"\", \"city\": \"\", \"state\": \"\", \"zip\": \"\"}"},":@computed_region_6hky_swhk":"10",":@computed_region_ttgh_9sm5":"10"}
,{"idsensore":"10382","tipologia":"Radiazione Globale","unit_dimisura":"W/m²","idstazione":"706","nomestazione":"Lecco v.Sora","quota":"272","provincia":"LC","datastart":"2008-07-31T00:00:00.000","storico":"N","cgb_nord":"5078987","cgb_est":"531045","lng":"9.399950344681852","lat":"45.86374884127965","location":{"latitude":"45.86374884127965","longitude":"9.399950344681852","human_address":"{\"address\": \"\", \"city\": \"\", \"state\": \"\", \"zip\": \"\"}"},":@computed_region_6hky_swhk":"10",":@computed_region_ttgh_9sm5":"10"}
,{"idsensore":"10443","tipologia":"Precipitazione","unit_dimisura":"mm","idstazione":"1264","nomestazione":"Sondrio v.Paribelli","quota":"290","provincia":"SO","datastart":"2008-11-17T00:00:00.000","datastop":"2019-01-22T00:00:00.000","storico":"S","cgb_nord":"5113073","cgb_est":"567873","lng":"9.879209924469903","lat":"46.167852440665115","location":{"latitude":"46.167852440665115","longitude":"9.879209924469903","human_address":"{\"address\": \"\", \"city\": \"\", \"state\": \"\", \"zip\": \"\"}"},":@computed_region_6hky_swhk":"3",":@computed_region_ttgh_9sm5":"3"}
,{"idsensore":"10461","tipologia":"Direzione Vento","unit_dimisura":"°","idstazione":"1266","nomestazione":"Bertonico v.Moro","quota":"65","provincia":"LO","datastart":"2009-03-03T00:00:00.000","storico":"N","cgb_nord":"5009105","cgb_est":"552297","lng":"9.666250375296032","lat":"45.23349364130374","location":{"latitude":"45.23349364130374","longitude":"9.666250375296032","human_address":"{\"address\": \"\", \"city\": \"\", \"state\": \"\", \"zip\": \"\"}"},":@computed_region_6hky_swhk":"11",":@computed_region_ttgh_9sm5":"11"}
,{"idsensore":"10465","tipologia":"Precipitazione","unit_dimisura":"mm","idstazione":"1266","nomestazione":"Bertonico v.Moro","quota":"65","provincia":"LO","datastart":"2009-03-03T00:00:00.000","storico":"N","cgb_nord":"5009105","cgb_est":"552297","lng":"9.666250375296032","lat":"45.23349364130374","location":{"latitude":"45.23349364130374","longitude":"9.666250375296032","human_address":"{\"address\": \"\", \"city\": \"\", \"state\": \"\", \"zip\": \"\"}"},":@computed_region_6hky_swhk":"11",":@computed_region_ttgh_9sm5":"11"}
,{"idsensore":"10467","tipologia":"Radiazione Globale","unit_dimisura":"W/m²","idstazione":"1266","nomestazione":"Bertonico v.Moro","quota":"65","provincia":"LO","datastart":"2009-03-03T00:00:00.000","storico":"N","cgb_nord":"5009105","cgb_est":"552297","lng":"9.666250375296032","lat":"45.23349364130374","location":{"latitude":"45.23349364130374","longitude":"9.666250375296032","human_address":"{\"address\": \"\", \"city\": \"\", \"state\": \"\", \"zip\": \"\"}"},":@computed_region_6hky_swhk":"11",":@computed_region_ttgh_9sm5":"11"}
,{"idsensore":"10469","tipologia":"Temperatura","unit_dimisura":"°C","idstazione":"1266","nomestazione":"Bertonico v.Moro","quota":"65","provincia":"LO","datastart":"2009-03-03T00:00:00.000","storico":"N","cgb_nord":"5009105","cgb_est":"552297","lng":"9.666250375296032","lat":"45.23349364130374","location":{"latitude":"45.23349364130374","longitude":"9.666250375296032","human_address":"{\"address\": \"\", \"city\": \"\", \"state\": \"\", \"zip\": \"\"}"},":@computed_region_6hky_swhk":"11",":@computed_region_ttgh_9sm5":"11"}
,{"idsensore":"10470","tipologia":"Umidità Relativa","unit_dimisura":"%","idstazione":"1266","nomestazione":"Bertonico v.Moro","quota":"65","provincia":"LO","datastart":"2009-03-03T00:00:00.000","storico":"N","cgb_nord":"5009105","cgb_est":"552297","lng":"9.666250375296032","lat":"45.23349364130374","location":{"latitude":"45.23349364130374","longitude":"9.666250375296032","human_address":"{\"address\": \"\", \"city\": \"\", \"state\": \"\", \"zip\": \"\"}"},":@computed_region_6hky_swhk":"11",":@computed_region_ttgh_9sm5":"11"}
,{"idsensore":"10472","tipologia":"Velocità Vento","unit_dimisura":"m/s","idstazione":"1266","nomestazione":"Bertonico v.Moro","quota":"65","provincia":"LO","datastart":"2009-03-03T00:00:00.000","storico":"N","cgb_nord":"5009105","cgb_est":"552297","lng":"9.666250375296032","lat":"45.23349364130374","location":{"latitude":"45.23349364130374","longitude":"9.666250375296032","human_address":"{\"address\": \"\", \"city\": \"\", \"state\": \"\", \"zip\": \"\"}"},":@computed_region_6hky_swhk":"11",":@computed_region_ttgh_9sm5":"11"}
,{"idsensore":"10551","tipologia":"Temperatura","unit_dimisura":"°C","idstazione":"554","nomestazione":"Saronno v.Santuario","quota":"212","provincia":"VA","datastart":"2010-07-06T00:00:00.000","storico":"N","cgb_nord":"5052646","cgb_est":"502058","lng":"9.026401379770974","lat":"45.627357052738944","location":{"latitude":"45.627357052738944","longitude":"9.026401379770974","human_address":"{\"address\": \"\", \"city\": \"\", \"state\": \"\", \"zip\": \"\"}"},":@computed_region_6hky_swhk":"1",":@computed_region_ttgh_9sm5":"1"}
,{"idsensore":"10552","tipologia":"Umidità Relativa","unit_dimisura":"%","idstazione":"554","nomestazione":"Saronno v.Santuario","quota":"212","provincia":"VA","datastart":"2010-07-06T00:00:00.000","storico":"N","cgb_nord":"5052646","cgb_est":"502058","lng":"9.026401379770974","lat":"45.627357052738944","location":{"latitude":"45.627357052738944","longitude":"9.026401379770974","human_address":"{\"address\": \"\", \"city\": \"\", \"state\": \"\", \"zip\": \"\"}"},":@computed_region_6hky_swhk":"1",":@computed_region_ttgh_9sm5":"1"}
,{"idsensore":"10554","tipologia":"Precipitazione","unit_dimisura":"mm","idstazione":"554","nomestazione":"Saronno v.Santuario","quota":"212","provincia":"VA","datastart":"2010-07-06T00:00:00.000","storico":"N","cgb_nord":"5052646","cgb_est":"502058","lng":"9.026401379770974","lat":"45.627357052738944","location":{"latitude":"45.627357052738944","longitude":"9.026401379770974","human_address":"{\"address\": \"\", \"city\": \"\", \"state\": \"\", \"zip\": \"\"}"},":@computed_region_6hky_swhk":"1",":@computed_region_ttgh_9sm5":"1"}
,{"idsensore":"10556","tipologia":"Radiazione Globale","unit_dimisura":"W/m²","idstazione":"554","nomestazione":"Saronno v.Santuario","quota":"212","provincia":"VA","datastart":"2010-07-06T00:00:00.000","storico":"N","cgb_nord":"5052646","cgb_est":"502058","lng":"9.026401379770974","lat":"45.627357052738944","location":{"latitude":"45.627357052738944","longitude":"9.026401379770974","human_address":"{\"address\": \"\", \"city\": \"\", \"state\": \"\", \"zip\": \"\"}"},":@computed_region_6hky_swhk":"1",":@computed_region_ttgh_9sm5":"1"}
,{"idsensore":"10570","tipologia":"Temperatura","unit_dimisura":"°C","idstazione":"1273","nomestazione":"Val Masino Bagni","quota":"1191","provincia":"SO","datastart":"2011-07-15T00:00:00.000","datastop":"2021-02-12T00:00:00.000","storico":"S","cgb_nord":"5121270","cgb_est":"545980","lng":"9.596430583118106","lat":"46.24345094940859","location":{"latitude":"46.24345094940859","longitude":"9.596430583118106","human_address":"{\"address\": \"\", \"city\": \"\", \"state\": \"\", \"zip\": \"\"}"},":@computed_region_6hky_swhk":"3",":@computed_region_ttgh_9sm5":"3"}
,{"idsensore":"10571","tipologia":"Umidità Relativa","unit_dimisura":"%","idstazione":"1273","nomestazione":"Val Masino Bagni","quota":"1191","provincia":"SO","datastart":"2011-07-15T00:00:00.000","datastop":"2021-02-12T00:00:00.000","storico":"S","cgb_nord":"5121270","cgb_est":"545980","lng":"9.596430583118106","lat":"46.24345094940859","location":{"latitude":"46.24345094940859","longitude":"9.596430583118106","human_address":"{\"address\": \"\", \"city\": \"\", \"state\": \"\", \"zip\": \"\"}"},":@computed_region_6hky_swhk":"3",":@computed_region_ttgh_9sm5":"3"}
,{"idsensore":"10574","tipologia":"Precipitazione","unit_dimisura":"mm","idstazione":"1273","nomestazione":"Val Masino Bagni","quota":"1191","provincia":"SO","datastart":"2011-07-11T00:00:00.000","datastop":"2021-02-12T00:00:00.000","storico":"S","cgb_nord":"5121270","cgb_est":"545980","lng":"9.596430583118106","lat":"46.24345094940859","location":{"latitude":"46.24345094940859","longitude":"9.596430583118106","human_address":"{\"address\": \"\", \"city\": \"\", \"state\": \"\", \"zip\": \"\"}"},":@computed_region_6hky_swhk":"3",":@computed_region_ttgh_9sm5":"3"}
,{"idsensore":"10575","tipologia":"Radiazione Globale","unit_dimisura":"W/m²","idstazione":"1273","nomestazione":"Val Masino Bagni","quota":"1191","provincia":"SO","datastart":"2011-07-15T00:00:00.000","datastop":"2021-02-12T00:00:00.000","storico":"S","cgb_nord":"5121270","cgb_est":"545980","lng":"9.596430583118106","lat":"46.24345094940859","location":{"latitude":"46.24345094940859","longitude":"9.596430583118106","human_address":"{\"address\": \"\", \"city\": \"\", \"state\": \"\", \"zip\": \"\"}"},":@computed_region_6hky_swhk":"3",":@computed_region_ttgh_9sm5":"3"}
,{"idsensore":"10585","tipologia":"Precipitazione","unit_dimisura":"mm","idstazione":"1274","nomestazione":"Perledo P.zza della stazione","quota":"212","provincia":"LC","datastart":"2010-07-01T00:00:00.000","storico":"N","cgb_nord":"5095846","cgb_est":"522171","lng":"9.286409208680807","lat":"46.01582830438376","location":{"latitude":"46.01582830438376","longitude":"9.286409208680807","human_address":"{\"address\": \"\", \"city\": \"\", \"state\": \"\", \"zip\": \"\"}"},":@computed_region_6hky_swhk":"10",":@computed_region_ttgh_9sm5":"10"}
,{"idsensore":"10658","tipologia":"Temperatura","unit_dimisura":"°C","idstazione":"1898","nomestazione":"Valganna Mondonico","quota":"665","provincia":"VA","datastart":"2020-05-18T00:00:00.000","storico":"N","cgb_nord":"5084612","cgb_est":"485317","lng":"8.810666295513172","lat":"45.914919843129915","location":{"latitude":"45.914919843129915","longitude":"8.810666295513172","human_address":"{\"address\": \"\", \"city\": \"\", \"state\": \"\", \"zip\": \"\"}"},":@computed_region_6hky_swhk":"1",":@computed_region_ttgh_9sm5":"1"}
,{"idsensore":"10661","tipologia":"Umidità Relativa","unit_dimisura":"%","idstazione":"1898","nomestazione":"Valganna Mondonico","quota":"665","provincia":"VA","datastart":"2020-05-18T00:00:00.000","storico":"N","cgb_nord":"5084612","cgb_est":"485317","lng":"8.810666295513172","lat":"45.914919843129915","location":{"latitude":"45.914919843129915","longitude":"8.810666295513172","human_address":"{\"address\": \"\", \"city\": \"\", \"state\": \"\", \"zip\": \"\"}"},":@computed_region_6hky_swhk":"1",":@computed_region_ttgh_9sm5":"1"}
,{"idsensore":"10662","tipologia":"Direzione Vento","unit_dimisura":"°","idstazione":"1898","nomestazione":"Valganna Mondonico","quota":"665","provincia":"VA","datastart":"2020-05-18T00:00:00.000","storico":"N","cgb_nord":"5084612","cgb_est":"485317","lng":"8.810666295513172","lat":"45.914919843129915","location":{"latitude":"45.914919843129915","longitude":"8.810666295513172","human_address":"{\"address\": \"\", \"city\": \"\", \"state\": \"\", \"zip\": \"\"}"},":@computed_region_6hky_swhk":"1",":@computed_region_ttgh_9sm5":"1"}
,{"idsensore":"10664","tipologia":"Velocità Vento","unit_dimisura":"m/s","idstazione":"1898","nomestazione":"Valganna Mondonico","quota":"665","provincia":"VA","datastart":"2020-05-18T00:00:00.000","storico":"N","cgb_nord":"5084612","cgb_est":"485317","lng":"8.810666295513172","lat":"45.914919843129915","location":{"latitude":"45.914919843129915","longitude":"8.810666295513172","human_address":"{\"address\": \"\", \"city\": \"\", \"state\": \"\", \"zip\": \"\"}"},":@computed_region_6hky_swhk":"1",":@computed_region_ttgh_9sm5":"1"}
,{"idsensore":"10666","tipologia":"Precipitazione","unit_dimisura":"mm","idstazione":"1898","nomestazione":"Valganna Mondonico","quota":"665","provincia":"VA","datastart":"2020-05-18T00:00:00.000","storico":"N","cgb_nord":"5084612","cgb_est":"485317","lng":"8.810666295513172","lat":"45.914919843129915","location":{"latitude":"45.914919843129915","longitude":"8.810666295513172","human_address":"{\"address\": \"\", \"city\": \"\", \"state\": \"\", \"zip\": \"\"}"},":@computed_region_6hky_swhk":"1",":@computed_region_ttgh_9sm5":"1"}
,{"idsensore":"10773","tipologia":"Umidità Relativa","unit_dimisura":"%","idstazione":"35","nomestazione":"Caspoggio Piazzo Cavalli","quota":"1719","provincia":"SO","datastart":"2021-02-13T00:00:00.000","storico":"N","cgb_nord":"5122179","cgb_est":"567130","lng":"9.87088061448165","lat":"46.24987071642867","location":{"latitude":"46.24987071642867","longitude":"9.87088061448165","human_address":"{\"address\": \"\", \"city\": \"\", \"state\": \"\", \"zip\": \"\"}"},":@computed_region_6hky_swhk":"3",":@computed_region_ttgh_9sm5":"3"}
,{"idsensore":"11","tipologia":"Precipitazione","unit_dimisura":"mm","idstazione":"6","nomestazione":"Bormio Ponte sul  Frodolfo","quota":"1250","provincia":"SO","datastart":"1987-11-24T00:00:00.000","storico":"N","cgb_nord":"5146642","cgb_est":"605400","lng":"10.372742774828684","lat":"46.46511042549073","location":{"latitude":"46.46511042549073","longitude":"10.372742774828684","human_address":"{\"address\": \"\", \"city\": \"\", \"state\": \"\", \"zip\": \"\"}"},":@computed_region_6hky_swhk":"3",":@computed_region_ttgh_9sm5":"3"}
,{"idsensore":"11007","tipologia":"Temperatura","unit_dimisura":"°C","idstazione":"822","nomestazione":"Valtorta","quota":"982","provincia":"BG","datastart":"2010-11-10T00:00:00.000","storico":"N","cgb_nord":"5091256","cgb_est":"541747","lng":"9.538885913106554","lat":"45.9736050452045","location":{"latitude":"45.9736050452045","longitude":"9.538885913106554","human_address":"{\"address\": \"\", \"city\": \"\", \"state\": \"\", \"zip\": \"\"}"},":@computed_region_6hky_swhk":"5",":@computed_region_ttgh_9sm5":"5"}
,{"idsensore":"11008","tipologia":"Umidità Relativa","unit_dimisura":"%","idstazione":"822","nomestazione":"Valtorta","quota":"982","provincia":"BG","datastart":"2010-11-10T00:00:00.000","storico":"N","cgb_nord":"5091256","cgb_est":"541747","lng":"9.538885913106554","lat":"45.9736050452045","location":{"latitude":"45.9736050452045","longitude":"9.538885913106554","human_address":"{\"address\": \"\", \"city\": \"\", \"state\": \"\", \"zip\": \"\"}"},":@computed_region_6hky_swhk":"5",":@computed_region_ttgh_9sm5":"5"}
,{"idsensore":"11011","tipologia":"Umidità Relativa","unit_dimisura":"%","idstazione":"912","nomestazione":"Foppolo","quota":"1682","provincia":"BG","datastart":"2010-11-22T00:00:00.000","storico":"N","cgb_nord":"5099046","cgb_est":"558502","lng":"9.756104062898737","lat":"46.04248712086998","location":{"latitude":"46.04248712086998","longitude":"9.756104062898737","human_address":"{\"address\": \"\", \"city\": \"\", \"state\": \"\", \"zip\": \"\"}"},":@computed_region_6hky_swhk":"5",":@computed_region_ttgh_9sm5":"5"}
,{"idsensore":"11020","tipologia":"Umidità Relativa","unit_dimisura":"%","idstazione":"1205","nomestazione":"Molteno Cimitero","quota":"278","provincia":"LC","datastart":"2010-12-16T00:00:00.000","storico":"N","cgb_nord":"5069985","cgb_est":"523872","lng":"9.30709688159315","lat":"45.78301246418984","location":{"latitude":"45.78301246418984","longitude":"9.30709688159315","human_address":"{\"address\": \"\", \"city\": \"\", \"state\": \"\", \"zip\": \"\"}"},":@computed_region_6hky_swhk":"10",":@computed_region_ttgh_9sm5":"10"}
,{"idsensore":"11021","tipologia":"Umidità Relativa","unit_dimisura":"%","idstazione":"1224","nomestazione":"Cortenova","quota":"456","provincia":"LC","datastart":"2010-12-22T00:00:00.000","storico":"N","cgb_nord":"5094947","cgb_est":"529451","lng":"9.380396323644733","lat":"46.00746283105623","location":{"latitude":"46.00746283105623","longitude":"9.380396323644733","human_address":"{\"address\": \"\", \"city\": \"\", \"state\": \"\", \"zip\": \"\"}"},":@computed_region_6hky_swhk":"10",":@computed_region_ttgh_9sm5":"10"}
,{"idsensore":"11025","tipologia":"Precipitazione","unit_dimisura":"mm","idstazione":"826","nomestazione":"Gavardo SP 116","quota":"205","provincia":"BS","datastart":"2020-08-06T00:00:00.000","storico":"N","cgb_nord":"5049767","cgb_est":"612403","lng":"10.44108604357676","lat":"45.59235602705005","location":{"latitude":"45.59235602705005","longitude":"10.44108604357676","human_address":"{\"address\": \"\", \"city\": \"\", \"state\": \"\", \"zip\": \"\"}"},":@computed_region_6hky_swhk":"6",":@computed_region_ttgh_9sm5":"6"}
,{"idsensore":"11044","tipologia":"Temperatura","unit_dimisura":"°C","idstazione":"1264","nomestazione":"Sondrio v.Paribelli","quota":"290","provincia":"SO","datastart":"2010-07-01T00:00:00.000","datastop":"2019-01-22T00:00:00.000","storico":"S","cgb_nord":"5113073","cgb_est":"567873","lng":"9.879209924469903","lat":"46.167852440665115","location":{"latitude":"46.167852440665115","longitude":"9.879209924469903","human_address":"{\"address\": \"\", \"city\": \"\", \"state\": \"\", \"zip\": \"\"}"},":@computed_region_6hky_swhk":"3",":@computed_region_ttgh_9sm5":"3"}
,{"idsensore":"11045","tipologia":"Umidità Relativa","unit_dimisura":"%","idstazione":"1264","nomestazione":"Sondrio v.Paribelli","quota":"290","provincia":"SO","datastart":"2010-10-15T00:00:00.000","datastop":"2019-01-22T00:00:00.000","storico":"S","cgb_nord":"5113073","cgb_est":"567873","lng":"9.879209924469903","lat":"46.167852440665115","location":{"latitude":"46.167852440665115","longitude":"9.879209924469903","human_address":"{\"address\": \"\", \"city\": \"\", \"state\": \"\", \"zip\": \"\"}"},":@computed_region_6hky_swhk":"3",":@computed_region_ttgh_9sm5":"3"}
,{"idsensore":"11099","tipologia":"Livello Idrometrico","unit_dimisura":"cm","idstazione":"1200","nomestazione":"Porlezza via Porto Letizia","quota":"272","provincia":"CO","datastart":"2011-08-04T00:00:00.000","storico":"N","cgb_nord":"5098085","cgb_est":"508966","lng":"9.115867206032997","lat":"46.03628011582886","location":{"latitude":"46.03628011582886","longitude":"9.115867206032997","human_address":"{\"address\": \"\", \"city\": \"\", \"state\": \"\", \"zip\": \"\"}"},":@computed_region_6hky_swhk":"2",":@computed_region_ttgh_9sm5":"2"}
,{"idsensore":"11100","tipologia":"Umidità Relativa","unit_dimisura":"%","idstazione":"1225","nomestazione":"Premana Diga di Pagnona","quota":"725","provincia":"LC","datastart":"2011-07-04T00:00:00.000","datastop":"2012-07-19T00:00:00.000","storico":"S","cgb_nord":"5100122","cgb_est":"531422","lng":"9.406194660858826","lat":"46.05395062506561","location":{"latitude":"46.05395062506561","longitude":"9.406194660858826","human_address":"{\"address\": \"\", \"city\": \"\", \"state\": \"\", \"zip\": \"\"}"},":@computed_region_6hky_swhk":"10",":@computed_region_ttgh_9sm5":"10"}
,{"idsensore":"11113","tipologia":"Radiazione Globale","unit_dimisura":"W/m²","idstazione":"896","nomestazione":"Collio S.Colombano","quota":"960","provincia":"BS","datastart":"2011-08-10T00:00:00.000","datastop":"2012-03-15T00:00:00.000","storico":"S","cgb_nord":"5073980","cgb_est":"606852","lng":"10.375271860298373","lat":"45.811105655978054","location":{"latitude":"45.811105655978054","longitude":"10.375271860298373","human_address":"{\"address\": \"\", \"city\": \"\", \"state\": \"\", \"zip\": \"\"}"},":@computed_region_6hky_swhk":"6",":@computed_region_ttgh_9sm5":"6"}
,{"idsensore":"11114","tipologia":"Umidità Relativa","unit_dimisura":"%","idstazione":"896","nomestazione":"Collio S.Colombano","quota":"960","provincia":"BS","datastart":"2011-08-10T00:00:00.000","datastop":"2012-03-15T00:00:00.000","storico":"S","cgb_nord":"5073980","cgb_est":"606852","lng":"10.375271860298373","lat":"45.811105655978054","location":{"latitude":"45.811105655978054","longitude":"10.375271860298373","human_address":"{\"address\": \"\", \"city\": \"\", \"state\": \"\", \"zip\": \"\"}"},":@computed_region_6hky_swhk":"6",":@computed_region_ttgh_9sm5":"6"}
,{"idsensore":"11116","tipologia":"Umidità Relativa","unit_dimisura":"%","idstazione":"875","nomestazione":"Bagolino Valle Dorizzo","quota":"1226","provincia":"BS","datastart":"2011-08-11T00:00:00.000","datastop":"2012-11-14T00:00:00.000","storico":"S","cgb_nord":"5081485","cgb_est":"612286","lng":"10.446939834207004","lat":"45.877770447155235","location":{"latitude":"45.877770447155235","longitude":"10.446939834207004","human_address":"{\"address\": \"\", \"city\": \"\", \"state\": \"\", \"zip\": \"\"}"},":@computed_region_6hky_swhk":"6",":@computed_region_ttgh_9sm5":"6"}
,{"idsensore":"11129","tipologia":"Velocità Vento","unit_dimisura":"m/s","idstazione":"123","nomestazione":"Cavenago d'Adda","quota":"67","provincia":"LO","datastart":"2002-08-28T00:00:00.000","storico":"N","cgb_nord":"5013018","cgb_est":"544138","lng":"9.562659972530115","lat":"45.269273960528615","location":{"latitude":"45.269273960528615","longitude":"9.562659972530115","human_address":"{\"address\": \"\", \"city\": \"\", \"state\": \"\", \"zip\": \"\"}"},":@computed_region_6hky_swhk":"11",":@computed_region_ttgh_9sm5":"11"}
,{"idsensore":"11130","tipologia":"Direzione Vento","unit_dimisura":"°","idstazione":"123","nomestazione":"Cavenago d'Adda","quota":"67","provincia":"LO","datastart":"2011-09-04T00:00:00.000","storico":"N","cgb_nord":"5013018","cgb_est":"544138","lng":"9.562659972530115","lat":"45.269273960528615","location":{"latitude":"45.269273960528615","longitude":"9.562659972530115","human_address":"{\"address\": \"\", \"city\": \"\", \"state\": \"\", \"zip\": \"\"}"},":@computed_region_6hky_swhk":"11",":@computed_region_ttgh_9sm5":"11"}
,{"idsensore":"11140","tipologia":"Radiazione Globale","unit_dimisura":"W/m²","idstazione":"824","nomestazione":"Clusone Campo Sportivo","quota":"591","provincia":"BG","datastart":"2011-08-29T00:00:00.000","datastop":"2015-07-21T00:00:00.000","storico":"S","cgb_nord":"5081860","cgb_est":"573451","lng":"9.94664890837357","lat":"45.88638608740617","location":{"latitude":"45.88638608740617","longitude":"9.94664890837357","human_address":"{\"address\": \"\", \"city\": \"\", \"state\": \"\", \"zip\": \"\"}"},":@computed_region_6hky_swhk":"5",":@computed_region_ttgh_9sm5":"5"}
,{"idsensore":"11144","tipologia":"Temperatura","unit_dimisura":"°C","idstazione":"143","nomestazione":"Livigno Passo Foscagno","quota":"2320","provincia":"SO","datastart":"2011-09-08T00:00:00.000","storico":"N","cgb_nord":"5149692","cgb_est":"592662","lng":"10.20748854795916","lat":"46.49442378267979","location":{"latitude":"46.49442378267979","longitude":"10.20748854795916","human_address":"{\"address\": \"\", \"city\": \"\", \"state\": \"\", \"zip\": \"\"}"},":@computed_region_6hky_swhk":"3",":@computed_region_ttgh_9sm5":"3"}
,{"idsensore":"11158","tipologia":"Umidità Relativa","unit_dimisura":"%","idstazione":"1230","nomestazione":"San Giacomo Filippo Lago Truzzo","quota":"2064","provincia":"SO","datastart":"2011-09-30T00:00:00.000","storico":"N","cgb_nord":"5134156","cgb_est":"524616","lng":"9.319988190479972","lat":"46.36053123729497","location":{"latitude":"46.36053123729497","longitude":"9.319988190479972","human_address":"{\"address\": \"\", \"city\": \"\", \"state\": \"\", \"zip\": \"\"}"},":@computed_region_6hky_swhk":"3",":@computed_region_ttgh_9sm5":"3"}
,{"idsensore":"11159","tipologia":"Direzione Vento","unit_dimisura":"°","idstazione":"1230","nomestazione":"San Giacomo Filippo Lago Truzzo","quota":"2064","provincia":"SO","datastart":"2011-09-30T00:00:00.000","storico":"N","cgb_nord":"5134156","cgb_est":"524616","lng":"9.319988190479972","lat":"46.36053123729497","location":{"latitude":"46.36053123729497","longitude":"9.319988190479972","human_address":"{\"address\": \"\", \"city\": \"\", \"state\": \"\", \"zip\": \"\"}"},":@computed_region_6hky_swhk":"3",":@computed_region_ttgh_9sm5":"3"}
,{"idsensore":"11160","tipologia":"Velocità Vento","unit_dimisura":"m/s","idstazione":"1230","nomestazione":"San Giacomo Filippo Lago Truzzo","quota":"2064","provincia":"SO","datastart":"2011-09-30T00:00:00.000","storico":"N","cgb_nord":"5134156","cgb_est":"524616","lng":"9.319988190479972","lat":"46.36053123729497","location":{"latitude":"46.36053123729497","longitude":"9.319988190479972","human_address":"{\"address\": \"\", \"city\": \"\", \"state\": \"\", \"zip\": \"\"}"},":@computed_region_6hky_swhk":"3",":@computed_region_ttgh_9sm5":"3"}
,{"idsensore":"11165","tipologia":"Livello Idrometrico","unit_dimisura":"cm","idstazione":"1074","nomestazione":"Asola v. Carducci","quota":"39","provincia":"MN","datastart":"2011-10-07T00:00:00.000","storico":"N","cgb_nord":"5008416","cgb_est":"610514","lng":"10.407601456011976","lat":"45.220560104644285","location":{"latitude":"45.220560104644285","longitude":"10.407601456011976","human_address":"{\"address\": \"\", \"city\": \"\", \"state\": \"\", \"zip\": \"\"}"},":@computed_region_6hky_swhk":"9",":@computed_region_ttgh_9sm5":"9"}
,{"idsensore":"11190","tipologia":"Umidità Relativa","unit_dimisura":"%","idstazione":"846","nomestazione":"Edolo Pantano d`Avio","quota":"2108","provincia":"BS","datastart":"2011-11-06T00:00:00.000","storico":"N","cgb_nord":"5114768","cgb_est":"613679","lng":"10.472817754713557","lat":"46.1770002163179","location":{"latitude":"46.1770002163179","longitude":"10.472817754713557","human_address":"{\"address\": \"\", \"city\": \"\", \"state\": \"\", \"zip\": \"\"}"},":@computed_region_6hky_swhk":"6",":@computed_region_ttgh_9sm5":"6"}
,{"idsensore":"112","tipologia":"Temperatura","unit_dimisura":"°C","idstazione":"57","nomestazione":"Branzi Caserma Carabinieri","quota":"830","provincia":"BG","datastart":"2001-11-16T00:00:00.000","storico":"N","cgb_nord":"5094534","cgb_est":"558779","lng":"9.75912783256968","lat":"46.0018575585613","location":{"latitude":"46.0018575585613","longitude":"9.75912783256968","human_address":"{\"address\": \"\", \"city\": \"\", \"state\": \"\", \"zip\": \"\"}"},":@computed_region_6hky_swhk":"5",":@computed_region_ttgh_9sm5":"5"}
,{"idsensore":"11216","tipologia":"Temperatura","unit_dimisura":"°C","idstazione":"1202","nomestazione":"Vercana","quota":"980","provincia":"CO","datastart":"2011-11-11T00:00:00.000","storico":"N","cgb_nord":"5114303","cgb_est":"525058","lng":"9.324676976148888","lat":"46.18184257309385","location":{"latitude":"46.18184257309385","longitude":"9.324676976148888","human_address":"{\"address\": \"\", \"city\": \"\", \"state\": \"\", \"zip\": \"\"}"},":@computed_region_6hky_swhk":"2",":@computed_region_ttgh_9sm5":"2"}
,{"idsensore":"11225","tipologia":"Velocità Vento","unit_dimisura":"m/s","idstazione":"1222","nomestazione":"Cavargna","quota":"1100","provincia":"CO","datastart":"2012-05-11T00:00:00.000","storico":"N","cgb_nord":"5104225","cgb_est":"508568","lng":"9.110834411077645","lat":"46.09154660527014","location":{"latitude":"46.09154660527014","longitude":"9.110834411077645","human_address":"{\"address\": \"\", \"city\": \"\", \"state\": \"\", \"zip\": \"\"}"},":@computed_region_6hky_swhk":"2",":@computed_region_ttgh_9sm5":"2"}
,{"idsensore":"11226","tipologia":"Direzione Vento","unit_dimisura":"°","idstazione":"1222","nomestazione":"Cavargna","quota":"1100","provincia":"CO","datastart":"2012-05-11T00:00:00.000","storico":"N","cgb_nord":"5104225","cgb_est":"508568","lng":"9.110834411077645","lat":"46.09154660527014","location":{"latitude":"46.09154660527014","longitude":"9.110834411077645","human_address":"{\"address\": \"\", \"city\": \"\", \"state\": \"\", \"zip\": \"\"}"},":@computed_region_6hky_swhk":"2",":@computed_region_ttgh_9sm5":"2"}
,{"idsensore":"11228","tipologia":"Radiazione Globale","unit_dimisura":"W/m²","idstazione":"1075","nomestazione":"Edolo Centrale ENEL","quota":"659","provincia":"BS","datastart":"2011-12-20T00:00:00.000","storico":"N","cgb_nord":"5113706","cgb_est":"603479","lng":"10.340473514382968","lat":"46.16907080571305","location":{"latitude":"46.16907080571305","longitude":"10.340473514382968","human_address":"{\"address\": \"\", \"city\": \"\", \"state\": \"\", \"zip\": \"\"}"},":@computed_region_6hky_swhk":"6",":@computed_region_ttgh_9sm5":"6"}
,{"idsensore":"113","tipologia":"Precipitazione","unit_dimisura":"mm","idstazione":"57","nomestazione":"Branzi Caserma Carabinieri","quota":"830","provincia":"BG","datastart":"2002-01-01T00:00:00.000","storico":"N","cgb_nord":"5094534","cgb_est":"558779","lng":"9.75912783256968","lat":"46.0018575585613","location":{"latitude":"46.0018575585613","longitude":"9.75912783256968","human_address":"{\"address\": \"\", \"city\": \"\", \"state\": \"\", \"zip\": \"\"}"},":@computed_region_6hky_swhk":"5",":@computed_region_ttgh_9sm5":"5"}
,{"idsensore":"11383","tipologia":"Altezza Neve","unit_dimisura":"cm","idstazione":"1214","nomestazione":"Oltre il Colle Acquedotto","quota":"1084","provincia":"BG","datastart":"2005-01-15T00:00:00.000","datastop":"2011-12-23T00:00:00.000","storico":"S","cgb_nord":"5082095","cgb_est":"559544","lng":"9.767460427844235","lat":"45.88984523769301","location":{"latitude":"45.88984523769301","longitude":"9.767460427844235","human_address":"{\"address\": \"\", \"city\": \"\", \"state\": \"\", \"zip\": \"\"}"},":@computed_region_6hky_swhk":"5",":@computed_region_ttgh_9sm5":"5"}
,{"idsensore":"114","tipologia":"Altezza Neve","unit_dimisura":"cm","idstazione":"57","nomestazione":"Branzi Caserma Carabinieri","quota":"830","provincia":"BG","datastart":"2003-01-08T00:00:00.000","storico":"N","cgb_nord":"5094534","cgb_est":"558779","lng":"9.75912783256968","lat":"46.0018575585613","location":{"latitude":"46.0018575585613","longitude":"9.75912783256968","human_address":"{\"address\": \"\", \"city\": \"\", \"state\": \"\", \"zip\": \"\"}"},":@computed_region_6hky_swhk":"5",":@computed_region_ttgh_9sm5":"5"}
,{"idsensore":"115","tipologia":"Temperatura","unit_dimisura":"°C","idstazione":"58","nomestazione":"Carona Lago Fregabolgia","quota":"1955","provincia":"BG","datastart":"2001-12-01T00:00:00.000","storico":"N","cgb_nord":"5097125","cgb_est":"566799","lng":"9.863057198828766","lat":"46.02443987306136","location":{"latitude":"46.02443987306136","longitude":"9.863057198828766","human_address":"{\"address\": \"\", \"city\": \"\", \"state\": \"\", \"zip\": \"\"}"},":@computed_region_6hky_swhk":"5",":@computed_region_ttgh_9sm5":"5"}
,{"idsensore":"116","tipologia":"Precipitazione","unit_dimisura":"mm","idstazione":"58","nomestazione":"Carona Lago Fregabolgia","quota":"1955","provincia":"BG","datastart":"2002-01-01T00:00:00.000","storico":"N","cgb_nord":"5097125","cgb_est":"566799","lng":"9.863057198828766","lat":"46.02443987306136","location":{"latitude":"46.02443987306136","longitude":"9.863057198828766","human_address":"{\"address\": \"\", \"city\": \"\", \"state\": \"\", \"zip\": \"\"}"},":@computed_region_6hky_swhk":"5",":@computed_region_ttgh_9sm5":"5"}
,{"idsensore":"11641","tipologia":"Velocità Vento","unit_dimisura":"m/s","idstazione":"102","nomestazione":"San Colombano al Lambro","quota":"140","provincia":"MI","datastart":"2001-06-27T00:00:00.000","storico":"N","cgb_nord":"5002165","cgb_est":"538425","lng":"9.488996837896474","lat":"45.171918959009645","location":{"latitude":"45.171918959009645","longitude":"9.488996837896474","human_address":"{\"address\": \"\", \"city\": \"\", \"state\": \"\", \"zip\": \"\"}"},":@computed_region_6hky_swhk":"4",":@computed_region_ttgh_9sm5":"4"}
,{"idsensore":"11642","tipologia":"Velocità Vento","unit_dimisura":"m/s","idstazione":"106","nomestazione":"Varzi Nivione","quota":"500","provincia":"PV","datastart":"2001-05-15T00:00:00.000","storico":"N","cgb_nord":"4961571","cgb_est":"514194","lng":"9.179491628449293","lat":"44.807399892628766","location":{"latitude":"44.807399892628766","longitude":"9.179491628449293","human_address":"{\"address\": \"\", \"city\": \"\", \"state\": \"\", \"zip\": \"\"}"},":@computed_region_6hky_swhk":"7",":@computed_region_ttgh_9sm5":"7"}
,{"idsensore":"11643","tipologia":"Velocità Vento","unit_dimisura":"m/s","idstazione":"107","nomestazione":"Sondrio Fond.Fojanini","quota":"307","provincia":"SO","datastart":"2001-01-29T00:00:00.000","storico":"N","cgb_nord":"5113016","cgb_est":"565691","lng":"9.850940145467526","lat":"46.167553376526","location":{"latitude":"46.167553376526","longitude":"9.850940145467526","human_address":"{\"address\": \"\", \"city\": \"\", \"state\": \"\", \"zip\": \"\"}"},":@computed_region_6hky_swhk":"3",":@computed_region_ttgh_9sm5":"3"}
,{"idsensore":"11644","tipologia":"Velocità Vento","unit_dimisura":"m/s","idstazione":"108","nomestazione":"Samolaco v.Vignola","quota":"206","provincia":"SO","datastart":"1994-07-27T00:00:00.000","storico":"N","cgb_nord":"5120369","cgb_est":"532896","lng":"9.426654061947305","lat":"46.23610160988358","location":{"latitude":"46.23610160988358","longitude":"9.426654061947305","human_address":"{\"address\": \"\", \"city\": \"\", \"state\": \"\", \"zip\": \"\"}"},":@computed_region_6hky_swhk":"3",":@computed_region_ttgh_9sm5":"3"}
,{"idsensore":"11646","tipologia":"Velocità Vento","unit_dimisura":"m/s","idstazione":"110","nomestazione":"Gonzaga Palidano","quota":"22","provincia":"MN","datastart":"1999-01-01T00:00:00.000","storico":"N","cgb_nord":"4980052","cgb_est":"638675","lng":"10.75828107180869","lat":"44.96037167591876","location":{"latitude":"44.96037167591876","longitude":"10.75828107180869","human_address":"{\"address\": \"\", \"city\": \"\", \"state\": \"\", \"zip\": \"\"}"},":@computed_region_6hky_swhk":"9",":@computed_region_ttgh_9sm5":"9"}
,{"idsensore":"11647","tipologia":"Velocità Vento","unit_dimisura":"m/s","idstazione":"111","nomestazione":"Cassina Valsassina Moggio","quota":"1234","provincia":"LC","datastart":"2003-02-28T00:00:00.000","storico":"N","cgb_nord":"5084512","cgb_est":"538583","lng":"9.497502220579186","lat":"45.91309369355323","location":{"latitude":"45.91309369355323","longitude":"9.497502220579186","human_address":"{\"address\": \"\", \"city\": \"\", \"state\": \"\", \"zip\": \"\"}"},":@computed_region_6hky_swhk":"10",":@computed_region_ttgh_9sm5":"10"}
,{"idsensore":"11648","tipologia":"Velocità Vento","unit_dimisura":"m/s","idstazione":"114","nomestazione":"Landriano Cascina Marianna","quota":"88","provincia":"PV","datastart":"2012-04-06T00:00:00.000","storico":"N","cgb_nord":"5018600","cgb_est":"520938","lng":"9.26715311477454","lat":"45.32059361110084","location":{"latitude":"45.32059361110084","longitude":"9.26715311477454","human_address":"{\"address\": \"\", \"city\": \"\", \"state\": \"\", \"zip\": \"\"}"},":@computed_region_6hky_swhk":"7",":@computed_region_ttgh_9sm5":"7"}
,{"idsensore":"11649","tipologia":"Velocità Vento","unit_dimisura":"m/s","idstazione":"1075","nomestazione":"Edolo Centrale ENEL","quota":"659","provincia":"BS","datastart":"1998-01-01T00:00:00.000","storico":"N","cgb_nord":"5113706","cgb_est":"603479","lng":"10.340473514382968","lat":"46.16907080571305","location":{"latitude":"46.16907080571305","longitude":"10.340473514382968","human_address":"{\"address\": \"\", \"city\": \"\", \"state\": \"\", \"zip\": \"\"}"},":@computed_region_6hky_swhk":"6",":@computed_region_ttgh_9sm5":"6"}
,{"idsensore":"11650","tipologia":"Velocità Vento","unit_dimisura":"m/s","idstazione":"119","nomestazione":"San Giovanni Bianco Cornalita","quota":"622","provincia":"BG","datastart":"2001-09-07T00:00:00.000","storico":"N","cgb_nord":"5079768","cgb_est":"549604","lng":"9.639112837494569","lat":"45.86969089938538","location":{"latitude":"45.86969089938538","longitude":"9.639112837494569","human_address":"{\"address\": \"\", \"city\": \"\", \"state\": \"\", \"zip\": \"\"}"},":@computed_region_6hky_swhk":"5",":@computed_region_ttgh_9sm5":"5"}
,{"idsensore":"11651","tipologia":"Velocità Vento","unit_dimisura":"m/s","idstazione":"125","nomestazione":"Castello d'Agogna","quota":"106","provincia":"PV","datastart":"1993-01-01T00:00:00.000","datastop":"2020-05-29T00:00:00.000","storico":"S","cgb_nord":"5010411","cgb_est":"476502","lng":"8.700571652227913","lat":"45.246800446962254","location":{"latitude":"45.246800446962254","longitude":"8.700571652227913","human_address":"{\"address\": \"\", \"city\": \"\", \"state\": \"\", \"zip\": \"\"}"},":@computed_region_6hky_swhk":"7",":@computed_region_ttgh_9sm5":"7"}
,{"idsensore":"11652","tipologia":"Velocità Vento","unit_dimisura":"m/s","idstazione":"127","nomestazione":"Casatenovo tetto","quota":"360","provincia":"LC","datastart":"2002-07-01T00:00:00.000","storico":"N","cgb_nord":"5060979","cgb_est":"524066","lng":"9.309144812286515","lat":"45.70194614072786","location":{"latitude":"45.70194614072786","longitude":"9.309144812286515","human_address":"{\"address\": \"\", \"city\": \"\", \"state\": \"\", \"zip\": \"\"}"},":@computed_region_6hky_swhk":"10",":@computed_region_ttgh_9sm5":"10"}
,{"idsensore":"11653","tipologia":"Velocità Vento","unit_dimisura":"m/s","idstazione":"129","nomestazione":"Capo di Ponte v.Briscioli","quota":"362","provincia":"BS","datastart":"2003-01-16T00:00:00.000","storico":"N","cgb_nord":"5097875","cgb_est":"603903","lng":"10.34250260860311","lat":"46.026563542472815","location":{"latitude":"46.026563542472815","longitude":"10.34250260860311","human_address":"{\"address\": \"\", \"city\": \"\", \"state\": \"\", \"zip\": \"\"}"},":@computed_region_6hky_swhk":"6",":@computed_region_ttgh_9sm5":"6"}
,{"idsensore":"11654","tipologia":"Velocità Vento","unit_dimisura":"m/s","idstazione":"132","nomestazione":"Bergamo v.Stezzano","quota":"211","provincia":"BG","datastart":"1993-05-19T00:00:00.000","storico":"N","cgb_nord":"5056541","cgb_est":"551321","lng":"9.658768470289832","lat":"45.66051928748766","location":{"latitude":"45.66051928748766","longitude":"9.658768470289832","human_address":"{\"address\": \"\", \"city\": \"\", \"state\": \"\", \"zip\": \"\"}"},":@computed_region_6hky_swhk":"5",":@computed_region_ttgh_9sm5":"5"}
,{"idsensore":"11655","tipologia":"Velocità Vento","unit_dimisura":"m/s","idstazione":"134","nomestazione":"Corzano Bargnano","quota":"93","provincia":"BS","datastart":"1998-05-03T00:00:00.000","storico":"N","cgb_nord":"5031659","cgb_est":"581271","lng":"10.039027376964667","lat":"45.43372847020967","location":{"latitude":"45.43372847020967","longitude":"10.039027376964667","human_address":"{\"address\": \"\", \"city\": \"\", \"state\": \"\", \"zip\": \"\"}"},":@computed_region_6hky_swhk":"6",":@computed_region_ttgh_9sm5":"6"}
,{"idsensore":"11656","tipologia":"Velocità Vento","unit_dimisura":"m/s","idstazione":"136","nomestazione":"Persico Dosimo","quota":"44","provincia":"CR","datastart":"1994-05-14T00:00:00.000","storico":"N","cgb_nord":"5003424","cgb_est":"582100","lng":"10.04494440386871","lat":"45.179518392763356","location":{"latitude":"45.179518392763356","longitude":"10.04494440386871","human_address":"{\"address\": \"\", \"city\": \"\", \"state\": \"\", \"zip\": \"\"}"},":@computed_region_6hky_swhk":"8",":@computed_region_ttgh_9sm5":"8"}
,{"idsensore":"11657","tipologia":"Velocità Vento","unit_dimisura":"m/s","idstazione":"137","nomestazione":"Rivolta d'Adda Ist. Spallanzani","quota":"102","provincia":"CR","datastart":"1993-06-09T00:00:00.000","storico":"N","cgb_nord":"5032417","cgb_est":"540720","lng":"9.52068900696699","lat":"45.444090523311516","location":{"latitude":"45.444090523311516","longitude":"9.52068900696699","human_address":"{\"address\": \"\", \"city\": \"\", \"state\": \"\", \"zip\": \"\"}"},":@computed_region_6hky_swhk":"8",":@computed_region_ttgh_9sm5":"8"}
,{"idsensore":"11658","tipologia":"Velocità Vento","unit_dimisura":"m/s","idstazione":"139","nomestazione":"Virgilio Mantova Cerese","quota":"19","provincia":"MN","datastart":"2003-09-26T00:00:00.000","datastop":"2018-09-19T00:00:00.000","storico":"S","cgb_nord":"4997294","cgb_est":"641005","lng":"10.792648102258525","lat":"45.115047425792355","location":{"latitude":"45.115047425792355","longitude":"10.792648102258525","human_address":"{\"address\": \"\", \"city\": \"\", \"state\": \"\", \"zip\": \"\"}"},":@computed_region_6hky_swhk":"9",":@computed_region_ttgh_9sm5":"9"}
,{"idsensore":"11659","tipologia":"Velocità Vento","unit_dimisura":"m/s","idstazione":"212","nomestazione":"Canzo","quota":"1233","provincia":"CO","datastart":"2008-11-26T00:00:00.000","storico":"N","cgb_nord":"5077224","cgb_est":"524701","lng":"9.318132023436622","lat":"45.84813790508536","location":{"latitude":"45.84813790508536","longitude":"9.318132023436622","human_address":"{\"address\": \"\", \"city\": \"\", \"state\": \"\", \"zip\": \"\"}"},":@computed_region_6hky_swhk":"2",":@computed_region_ttgh_9sm5":"2"}
,{"idsensore":"11660","tipologia":"Velocità Vento","unit_dimisura":"m/s","idstazione":"214","nomestazione":"Bigarello","quota":"15","provincia":"MN","datastart":"2009-11-25T00:00:00.000","storico":"N","cgb_nord":"5005622","cgb_est":"648246","lng":"10.887128700975579","lat":"45.18849105038444","location":{"latitude":"45.18849105038444","longitude":"10.887128700975579","human_address":"{\"address\": \"\", \"city\": \"\", \"state\": \"\", \"zip\": \"\"}"},":@computed_region_6hky_swhk":"9",":@computed_region_ttgh_9sm5":"9"}
,{"idsensore":"11661","tipologia":"Velocità Vento","unit_dimisura":"m/s","idstazione":"832","nomestazione":"Lanzada Palù","quota":"2151","provincia":"SO","datastart":"2002-01-01T00:00:00.000","storico":"N","cgb_nord":"5126972","cgb_est":"568128","lng":"9.884519789844443","lat":"46.29290281845888","location":{"latitude":"46.29290281845888","longitude":"9.884519789844443","human_address":"{\"address\": \"\", \"city\": \"\", \"state\": \"\", \"zip\": \"\"}"},":@computed_region_6hky_swhk":"3",":@computed_region_ttgh_9sm5":"3"}
,{"idsensore":"11662","tipologia":"Velocità Vento","unit_dimisura":"m/s","idstazione":"833","nomestazione":"Gerola Alta Pescegallo","quota":"1875","provincia":"SO","datastart":"2002-01-01T00:00:00.000","storico":"N","cgb_nord":"5097116","cgb_est":"544202","lng":"9.571116796075925","lat":"46.0261906266171","location":{"latitude":"46.0261906266171","longitude":"9.571116796075925","human_address":"{\"address\": \"\", \"city\": \"\", \"state\": \"\", \"zip\": \"\"}"},":@computed_region_6hky_swhk":"3",":@computed_region_ttgh_9sm5":"3"}
,{"idsensore":"11663","tipologia":"Velocità Vento","unit_dimisura":"m/s","idstazione":"835","nomestazione":"Valdisotto Oga S. Colombano","quota":"2300","provincia":"SO","datastart":"2003-01-01T00:00:00.000","storico":"N","cgb_nord":"5145272","cgb_est":"600293","lng":"10.305951823970043","lat":"46.45356305894081","location":{"latitude":"46.45356305894081","longitude":"10.305951823970043","human_address":"{\"address\": \"\", \"city\": \"\", \"state\": \"\", \"zip\": \"\"}"},":@computed_region_6hky_swhk":"3",":@computed_region_ttgh_9sm5":"3"}
,{"idsensore":"11664","tipologia":"Velocità Vento","unit_dimisura":"m/s","idstazione":"836","nomestazione":"Aprica","quota":"1950","provincia":"SO","datastart":"2003-01-22T00:00:00.000","storico":"N","cgb_nord":"5109097","cgb_est":"588704","lng":"10.148256664341748","lat":"46.1296816331299","location":{"latitude":"46.1296816331299","longitude":"10.148256664341748","human_address":"{\"address\": \"\", \"city\": \"\", \"state\": \"\", \"zip\": \"\"}"},":@computed_region_6hky_swhk":"3",":@computed_region_ttgh_9sm5":"3"}
,{"idsensore":"11665","tipologia":"Velocità Vento","unit_dimisura":"m/s","idstazione":"846","nomestazione":"Edolo Pantano d`Avio","quota":"2108","provincia":"BS","datastart":"2003-01-01T00:00:00.000","storico":"N","cgb_nord":"5114768","cgb_est":"613679","lng":"10.472817754713557","lat":"46.1770002163179","location":{"latitude":"46.1770002163179","longitude":"10.472817754713557","human_address":"{\"address\": \"\", \"city\": \"\", \"state\": \"\", \"zip\": \"\"}"},":@computed_region_6hky_swhk":"6",":@computed_region_ttgh_9sm5":"6"}
,{"idsensore":"11666","tipologia":"Velocità Vento","unit_dimisura":"m/s","idstazione":"847","nomestazione":"Carona Carisole","quota":"1954","provincia":"BG","datastart":"2003-01-01T00:00:00.000","storico":"N","cgb_nord":"5098634","cgb_est":"561423","lng":"9.793799590056548","lat":"46.03852339399498","location":{"latitude":"46.03852339399498","longitude":"9.793799590056548","human_address":"{\"address\": \"\", \"city\": \"\", \"state\": \"\", \"zip\": \"\"}"},":@computed_region_6hky_swhk":"5",":@computed_region_ttgh_9sm5":"5"}
,{"idsensore":"11667","tipologia":"Velocità Vento","unit_dimisura":"m/s","idstazione":"848","nomestazione":"Livigno La Vallaccia","quota":"2660","provincia":"SO","datastart":"2003-01-20T00:00:00.000","storico":"N","cgb_nord":"5147768","cgb_est":"591251","lng":"10.188728513795667","lat":"46.47730494291044","location":{"latitude":"46.47730494291044","longitude":"10.188728513795667","human_address":"{\"address\": \"\", \"city\": \"\", \"state\": \"\", \"zip\": \"\"}"},":@computed_region_6hky_swhk":"3",":@computed_region_ttgh_9sm5":"3"}
,{"idsensore":"11668","tipologia":"Velocità Vento","unit_dimisura":"m/s","idstazione":"900","nomestazione":"Chiari","quota":"140","provincia":"BS","datastart":"2004-05-19T00:00:00.000","storico":"N","cgb_nord":"5041392","cgb_est":"573236","lng":"9.937768713461718","lat":"45.522213315999174","location":{"latitude":"45.522213315999174","longitude":"9.937768713461718","human_address":"{\"address\": \"\", \"city\": \"\", \"state\": \"\", \"zip\": \"\"}"},":@computed_region_6hky_swhk":"6",":@computed_region_ttgh_9sm5":"6"}
,{"idsensore":"11669","tipologia":"Velocità Vento","unit_dimisura":"m/s","idstazione":"998","nomestazione":"Laveno-Mombello p.zza Matteotti","quota":"207","provincia":"VA","datastart":"2003-07-16T00:00:00.000","storico":"N","cgb_nord":"5084109","cgb_est":"470426","lng":"8.61868470587428","lat":"45.909913257580605","location":{"latitude":"45.909913257580605","longitude":"8.61868470587428","human_address":"{\"address\": \"\", \"city\": \"\", \"state\": \"\", \"zip\": \"\"}"},":@computed_region_6hky_swhk":"1",":@computed_region_ttgh_9sm5":"1"}
,{"idsensore":"11670","tipologia":"Velocità Vento","unit_dimisura":"m/s","idstazione":"999","nomestazione":"Laveno-Mombello Poggio S.Elsa","quota":"950","provincia":"VA","datastart":"2003-07-16T00:00:00.000","storico":"N","cgb_nord":"5084222","cgb_est":"471939","lng":"8.638185708619893","lat":"45.91099372061516","location":{"latitude":"45.91099372061516","longitude":"8.638185708619893","human_address":"{\"address\": \"\", \"city\": \"\", \"state\": \"\", \"zip\": \"\"}"},":@computed_region_6hky_swhk":"1",":@computed_region_ttgh_9sm5":"1"}
,{"idsensore":"11671","tipologia":"Velocità Vento","unit_dimisura":"m/s","idstazione":"1273","nomestazione":"Val Masino Bagni","quota":"1191","provincia":"SO","datastart":"2012-04-02T00:00:00.000","datastop":"2021-02-12T00:00:00.000","storico":"S","cgb_nord":"5121270","cgb_est":"545980","lng":"9.596430583118106","lat":"46.24345094940859","location":{"latitude":"46.24345094940859","longitude":"9.596430583118106","human_address":"{\"address\": \"\", \"city\": \"\", \"state\": \"\", \"zip\": \"\"}"},":@computed_region_6hky_swhk":"3",":@computed_region_ttgh_9sm5":"3"}
,{"idsensore":"117","tipologia":"Altezza Neve","unit_dimisura":"cm","idstazione":"58","nomestazione":"Carona Lago Fregabolgia","quota":"1955","provincia":"BG","datastart":"2001-12-01T00:00:00.000","storico":"N","cgb_nord":"5097125","cgb_est":"566799","lng":"9.863057198828766","lat":"46.02443987306136","location":{"latitude":"46.02443987306136","longitude":"9.863057198828766","human_address":"{\"address\": \"\", \"city\": \"\", \"state\": \"\", \"zip\": \"\"}"},":@computed_region_6hky_swhk":"5",":@computed_region_ttgh_9sm5":"5"}
,{"idsensore":"11827","tipologia":"Direzione Vento","unit_dimisura":"°","idstazione":"102","nomestazione":"San Colombano al Lambro","quota":"140","provincia":"MI","datastart":"2012-06-19T00:00:00.000","storico":"N","cgb_nord":"5002165","cgb_est":"538425","lng":"9.488996837896474","lat":"45.171918959009645","location":{"latitude":"45.171918959009645","longitude":"9.488996837896474","human_address":"{\"address\": \"\", \"city\": \"\", \"state\": \"\", \"zip\": \"\"}"},":@computed_region_6hky_swhk":"4",":@computed_region_ttgh_9sm5":"4"}
,{"idsensore":"11828","tipologia":"Direzione Vento","unit_dimisura":"°","idstazione":"106","nomestazione":"Varzi Nivione","quota":"500","provincia":"PV","datastart":"2012-05-02T00:00:00.000","storico":"N","cgb_nord":"4961571","cgb_est":"514194","lng":"9.179491628449293","lat":"44.807399892628766","location":{"latitude":"44.807399892628766","longitude":"9.179491628449293","human_address":"{\"address\": \"\", \"city\": \"\", \"state\": \"\", \"zip\": \"\"}"},":@computed_region_6hky_swhk":"7",":@computed_region_ttgh_9sm5":"7"}
,{"idsensore":"11829","tipologia":"Direzione Vento","unit_dimisura":"°","idstazione":"107","nomestazione":"Sondrio Fond.Fojanini","quota":"307","provincia":"SO","datastart":"2012-04-03T00:00:00.000","storico":"N","cgb_nord":"5113016","cgb_est":"565691","lng":"9.850940145467526","lat":"46.167553376526","location":{"latitude":"46.167553376526","longitude":"9.850940145467526","human_address":"{\"address\": \"\", \"city\": \"\", \"state\": \"\", \"zip\": \"\"}"},":@computed_region_6hky_swhk":"3",":@computed_region_ttgh_9sm5":"3"}
,{"idsensore":"11830","tipologia":"Direzione Vento","unit_dimisura":"°","idstazione":"108","nomestazione":"Samolaco v.Vignola","quota":"206","provincia":"SO","datastart":"2012-05-15T00:00:00.000","storico":"N","cgb_nord":"5120369","cgb_est":"532896","lng":"9.426654061947305","lat":"46.23610160988358","location":{"latitude":"46.23610160988358","longitude":"9.426654061947305","human_address":"{\"address\": \"\", \"city\": \"\", \"state\": \"\", \"zip\": \"\"}"},":@computed_region_6hky_swhk":"3",":@computed_region_ttgh_9sm5":"3"}
,{"idsensore":"11832","tipologia":"Direzione Vento","unit_dimisura":"°","idstazione":"110","nomestazione":"Gonzaga Palidano","quota":"22","provincia":"MN","datastart":"2012-05-04T00:00:00.000","storico":"N","cgb_nord":"4980052","cgb_est":"638675","lng":"10.75828107180869","lat":"44.96037167591876","location":{"latitude":"44.96037167591876","longitude":"10.75828107180869","human_address":"{\"address\": \"\", \"city\": \"\", \"state\": \"\", \"zip\": \"\"}"},":@computed_region_6hky_swhk":"9",":@computed_region_ttgh_9sm5":"9"}
,{"idsensore":"11833","tipologia":"Direzione Vento","unit_dimisura":"°","idstazione":"111","nomestazione":"Cassina Valsassina Moggio","quota":"1234","provincia":"LC","datastart":"2012-08-23T00:00:00.000","storico":"N","cgb_nord":"5084512","cgb_est":"538583","lng":"9.497502220579186","lat":"45.91309369355323","location":{"latitude":"45.91309369355323","longitude":"9.497502220579186","human_address":"{\"address\": \"\", \"city\": \"\", \"state\": \"\", \"zip\": \"\"}"},":@computed_region_6hky_swhk":"10",":@computed_region_ttgh_9sm5":"10"}
,{"idsensore":"11834","tipologia":"Direzione Vento","unit_dimisura":"°","idstazione":"114","nomestazione":"Landriano Cascina Marianna","quota":"88","provincia":"PV","datastart":"2012-02-12T00:00:00.000","storico":"N","cgb_nord":"5018600","cgb_est":"520938","lng":"9.26715311477454","lat":"45.32059361110084","location":{"latitude":"45.32059361110084","longitude":"9.26715311477454","human_address":"{\"address\": \"\", \"city\": \"\", \"state\": \"\", \"zip\": \"\"}"},":@computed_region_6hky_swhk":"7",":@computed_region_ttgh_9sm5":"7"}
,{"idsensore":"11835","tipologia":"Direzione Vento","unit_dimisura":"°","idstazione":"1075","nomestazione":"Edolo Centrale ENEL","quota":"659","provincia":"BS","datastart":"2012-05-18T00:00:00.000","storico":"N","cgb_nord":"5113706","cgb_est":"603479","lng":"10.340473514382968","lat":"46.16907080571305","location":{"latitude":"46.16907080571305","longitude":"10.340473514382968","human_address":"{\"address\": \"\", \"city\": \"\", \"state\": \"\", \"zip\": \"\"}"},":@computed_region_6hky_swhk":"6",":@computed_region_ttgh_9sm5":"6"}
,{"idsensore":"11836","tipologia":"Direzione Vento","unit_dimisura":"°","idstazione":"119","nomestazione":"San Giovanni Bianco Cornalita","quota":"622","provincia":"BG","datastart":"2012-05-10T00:00:00.000","storico":"N","cgb_nord":"5079768","cgb_est":"549604","lng":"9.639112837494569","lat":"45.86969089938538","location":{"latitude":"45.86969089938538","longitude":"9.639112837494569","human_address":"{\"address\": \"\", \"city\": \"\", \"state\": \"\", \"zip\": \"\"}"},":@computed_region_6hky_swhk":"5",":@computed_region_ttgh_9sm5":"5"}
,{"idsensore":"11837","tipologia":"Direzione Vento","unit_dimisura":"°","idstazione":"125","nomestazione":"Castello d'Agogna","quota":"106","provincia":"PV","datastart":"2012-02-12T00:00:00.000","datastop":"2020-05-20T00:00:00.000","storico":"S","cgb_nord":"5010411","cgb_est":"476502","lng":"8.700571652227913","lat":"45.246800446962254","location":{"latitude":"45.246800446962254","longitude":"8.700571652227913","human_address":"{\"address\": \"\", \"city\": \"\", \"state\": \"\", \"zip\": \"\"}"},":@computed_region_6hky_swhk":"7",":@computed_region_ttgh_9sm5":"7"}
,{"idsensore":"11838","tipologia":"Direzione Vento","unit_dimisura":"°","idstazione":"127","nomestazione":"Casatenovo tetto","quota":"360","provincia":"LC","datastart":"2012-03-23T00:00:00.000","storico":"N","cgb_nord":"5060979","cgb_est":"524066","lng":"9.309144812286515","lat":"45.70194614072786","location":{"latitude":"45.70194614072786","longitude":"9.309144812286515","human_address":"{\"address\": \"\", \"city\": \"\", \"state\": \"\", \"zip\": \"\"}"},":@computed_region_6hky_swhk":"10",":@computed_region_ttgh_9sm5":"10"}
,{"idsensore":"11839","tipologia":"Direzione Vento","unit_dimisura":"°","idstazione":"129","nomestazione":"Capo di Ponte v.Briscioli","quota":"362","provincia":"BS","datastart":"2012-02-15T00:00:00.000","storico":"N","cgb_nord":"5097875","cgb_est":"603903","lng":"10.34250260860311","lat":"46.026563542472815","location":{"latitude":"46.026563542472815","longitude":"10.34250260860311","human_address":"{\"address\": \"\", \"city\": \"\", \"state\": \"\", \"zip\": \"\"}"},":@computed_region_6hky_swhk":"6",":@computed_region_ttgh_9sm5":"6"}
,{"idsensore":"11840","tipologia":"Direzione Vento","unit_dimisura":"°","idstazione":"132","nomestazione":"Bergamo v.Stezzano","quota":"211","provincia":"BG","datastart":"2012-05-10T00:00:00.000","storico":"N","cgb_nord":"5056541","cgb_est":"551321","lng":"9.658768470289832","lat":"45.66051928748766","location":{"latitude":"45.66051928748766","longitude":"9.658768470289832","human_address":"{\"address\": \"\", \"city\": \"\", \"state\": \"\", \"zip\": \"\"}"},":@computed_region_6hky_swhk":"5",":@computed_region_ttgh_9sm5":"5"}
,{"idsensore":"11841","tipologia":"Direzione Vento","unit_dimisura":"°","idstazione":"134","nomestazione":"Corzano Bargnano","quota":"93","provincia":"BS","datastart":"2012-03-19T00:00:00.000","storico":"N","cgb_nord":"5031659","cgb_est":"581271","lng":"10.039027376964667","lat":"45.43372847020967","location":{"latitude":"45.43372847020967","longitude":"10.039027376964667","human_address":"{\"address\": \"\", \"city\": \"\", \"state\": \"\", \"zip\": \"\"}"},":@computed_region_6hky_swhk":"6",":@computed_region_ttgh_9sm5":"6"}
,{"idsensore":"11842","tipologia":"Direzione Vento","unit_dimisura":"°","idstazione":"136","nomestazione":"Persico Dosimo","quota":"44","provincia":"CR","datastart":"2012-04-10T00:00:00.000","storico":"N","cgb_nord":"5003424","cgb_est":"582100","lng":"10.04494440386871","lat":"45.179518392763356","location":{"latitude":"45.179518392763356","longitude":"10.04494440386871","human_address":"{\"address\": \"\", \"city\": \"\", \"state\": \"\", \"zip\": \"\"}"},":@computed_region_6hky_swhk":"8",":@computed_region_ttgh_9sm5":"8"}
,{"idsensore":"11843","tipologia":"Direzione Vento","unit_dimisura":"°","idstazione":"137","nomestazione":"Rivolta d'Adda Ist. Spallanzani","quota":"102","provincia":"CR","datastart":"2012-04-03T00:00:00.000","storico":"N","cgb_nord":"5032417","cgb_est":"540720","lng":"9.52068900696699","lat":"45.444090523311516","location":{"latitude":"45.444090523311516","longitude":"9.52068900696699","human_address":"{\"address\": \"\", \"city\": \"\", \"state\": \"\", \"zip\": \"\"}"},":@computed_region_6hky_swhk":"8",":@computed_region_ttgh_9sm5":"8"}
,{"idsensore":"11844","tipologia":"Direzione Vento","unit_dimisura":"°","idstazione":"139","nomestazione":"Virgilio Mantova Cerese","quota":"19","provincia":"MN","datastart":"2012-05-04T00:00:00.000","datastop":"2018-09-19T00:00:00.000","storico":"S","cgb_nord":"4997294","cgb_est":"641005","lng":"10.792648102258525","lat":"45.115047425792355","location":{"latitude":"45.115047425792355","longitude":"10.792648102258525","human_address":"{\"address\": \"\", \"city\": \"\", \"state\": \"\", \"zip\": \"\"}"},":@computed_region_6hky_swhk":"9",":@computed_region_ttgh_9sm5":"9"}
,{"idsensore":"11845","tipologia":"Direzione Vento","unit_dimisura":"°","idstazione":"141","nomestazione":"Vertemate con Minoprio serre","quota":"310","provincia":"CO","datastart":"2012-02-16T00:00:00.000","storico":"N","cgb_nord":"5062832","cgb_est":"506653","lng":"9.085488499092358","lat":"45.71901089635149","location":{"latitude":"45.71901089635149","longitude":"9.085488499092358","human_address":"{\"address\": \"\", \"city\": \"\", \"state\": \"\", \"zip\": \"\"}"},":@computed_region_6hky_swhk":"2",":@computed_region_ttgh_9sm5":"2"}
,{"idsensore":"11846","tipologia":"Direzione Vento","unit_dimisura":"°","idstazione":"142","nomestazione":"Caiolo","quota":"274","provincia":"SO","datastart":"2012-03-09T00:00:00.000","storico":"N","cgb_nord":"5111566","cgb_est":"561195","lng":"9.792518875272254","lat":"46.15492316813672","location":{"latitude":"46.15492316813672","longitude":"9.792518875272254","human_address":"{\"address\": \"\", \"city\": \"\", \"state\": \"\", \"zip\": \"\"}"},":@computed_region_6hky_swhk":"3",":@computed_region_ttgh_9sm5":"3"}
,{"idsensore":"11847","tipologia":"Direzione Vento","unit_dimisura":"°","idstazione":"143","nomestazione":"Livigno Passo Foscagno","quota":"2320","provincia":"SO","datastart":"2012-02-22T00:00:00.000","storico":"N","cgb_nord":"5149692","cgb_est":"592662","lng":"10.20748854795916","lat":"46.49442378267979","location":{"latitude":"46.49442378267979","longitude":"10.20748854795916","human_address":"{\"address\": \"\", \"city\": \"\", \"state\": \"\", \"zip\": \"\"}"},":@computed_region_6hky_swhk":"3",":@computed_region_ttgh_9sm5":"3"}
,{"idsensore":"11848","tipologia":"Direzione Vento","unit_dimisura":"°","idstazione":"144","nomestazione":"Madesimo Spluga","quota":"1915","provincia":"SO","datastart":"2012-05-10T00:00:00.000","storico":"N","cgb_nord":"5146513","cgb_est":"526726","lng":"9.348122957946567","lat":"46.4716582729432","location":{"latitude":"46.4716582729432","longitude":"9.348122957946567","human_address":"{\"address\": \"\", \"city\": \"\", \"state\": \"\", \"zip\": \"\"}"},":@computed_region_6hky_swhk":"3",":@computed_region_ttgh_9sm5":"3"}
,{"idsensore":"11849","tipologia":"Direzione Vento","unit_dimisura":"°","idstazione":"145","nomestazione":"Darfo Boario Terme","quota":"222","provincia":"BS","datastart":"2012-03-15T00:00:00.000","storico":"N","cgb_nord":"5080789","cgb_est":"591371","lng":"10.17735680898138","lat":"45.87460210989037","location":{"latitude":"45.87460210989037","longitude":"10.17735680898138","human_address":"{\"address\": \"\", \"city\": \"\", \"state\": \"\", \"zip\": \"\"}"},":@computed_region_6hky_swhk":"6",":@computed_region_ttgh_9sm5":"6"}
,{"idsensore":"11850","tipologia":"Direzione Vento","unit_dimisura":"°","idstazione":"146","nomestazione":"Mezzoldo Passo S.Marco","quota":"1824","provincia":"BG","datastart":"2012-05-10T00:00:00.000","storico":"N","cgb_nord":"5098490","cgb_est":"548644","lng":"9.628646994972508","lat":"46.038255091957716","location":{"latitude":"46.038255091957716","longitude":"9.628646994972508","human_address":"{\"address\": \"\", \"city\": \"\", \"state\": \"\", \"zip\": \"\"}"},":@computed_region_6hky_swhk":"5",":@computed_region_ttgh_9sm5":"5"}
,{"idsensore":"11851","tipologia":"Direzione Vento","unit_dimisura":"°","idstazione":"148","nomestazione":"Arconate SMR","quota":"182","provincia":"MI","datastart":"2012-04-05T00:00:00.000","storico":"N","cgb_nord":"5043898","cgb_est":"488082","lng":"8.847321929216262","lat":"45.54851735741946","location":{"latitude":"45.54851735741946","longitude":"8.847321929216262","human_address":"{\"address\": \"\", \"city\": \"\", \"state\": \"\", \"zip\": \"\"}"},":@computed_region_6hky_swhk":"4",":@computed_region_ttgh_9sm5":"4"}
,{"idsensore":"11852","tipologia":"Direzione Vento","unit_dimisura":"°","idstazione":"212","nomestazione":"Canzo","quota":"1233","provincia":"CO","datastart":"2012-05-16T00:00:00.000","storico":"N","cgb_nord":"5077224","cgb_est":"524701","lng":"9.318132023436622","lat":"45.84813790508536","location":{"latitude":"45.84813790508536","longitude":"9.318132023436622","human_address":"{\"address\": \"\", \"city\": \"\", \"state\": \"\", \"zip\": \"\"}"},":@computed_region_6hky_swhk":"2",":@computed_region_ttgh_9sm5":"2"}
,{"idsensore":"11853","tipologia":"Direzione Vento","unit_dimisura":"°","idstazione":"214","nomestazione":"Bigarello","quota":"15","provincia":"MN","datastart":"2012-05-15T00:00:00.000","storico":"N","cgb_nord":"5005622","cgb_est":"648246","lng":"10.887128700975579","lat":"45.18849105038444","location":{"latitude":"45.18849105038444","longitude":"10.887128700975579","human_address":"{\"address\": \"\", \"city\": \"\", \"state\": \"\", \"zip\": \"\"}"},":@computed_region_6hky_swhk":"9",":@computed_region_ttgh_9sm5":"9"}
,{"idsensore":"11854","tipologia":"Direzione Vento","unit_dimisura":"°","idstazione":"832","nomestazione":"Lanzada Palù","quota":"2151","provincia":"SO","datastart":"2012-01-28T00:00:00.000","storico":"N","cgb_nord":"5126972","cgb_est":"568128","lng":"9.884519789844443","lat":"46.29290281845888","location":{"latitude":"46.29290281845888","longitude":"9.884519789844443","human_address":"{\"address\": \"\", \"city\": \"\", \"state\": \"\", \"zip\": \"\"}"},":@computed_region_6hky_swhk":"3",":@computed_region_ttgh_9sm5":"3"}
,{"idsensore":"11855","tipologia":"Direzione Vento","unit_dimisura":"°","idstazione":"833","nomestazione":"Gerola Alta Pescegallo","quota":"1875","provincia":"SO","datastart":"2012-05-14T00:00:00.000","storico":"N","cgb_nord":"5097116","cgb_est":"544202","lng":"9.571116796075925","lat":"46.0261906266171","location":{"latitude":"46.0261906266171","longitude":"9.571116796075925","human_address":"{\"address\": \"\", \"city\": \"\", \"state\": \"\", \"zip\": \"\"}"},":@computed_region_6hky_swhk":"3",":@computed_region_ttgh_9sm5":"3"}
,{"idsensore":"11856","tipologia":"Direzione Vento","unit_dimisura":"°","idstazione":"835","nomestazione":"Valdisotto Oga S. Colombano","quota":"2300","provincia":"SO","datastart":"2012-05-18T00:00:00.000","storico":"N","cgb_nord":"5145272","cgb_est":"600293","lng":"10.305951823970043","lat":"46.45356305894081","location":{"latitude":"46.45356305894081","longitude":"10.305951823970043","human_address":"{\"address\": \"\", \"city\": \"\", \"state\": \"\", \"zip\": \"\"}"},":@computed_region_6hky_swhk":"3",":@computed_region_ttgh_9sm5":"3"}
,{"idsensore":"11857","tipologia":"Direzione Vento","unit_dimisura":"°","idstazione":"836","nomestazione":"Aprica","quota":"1950","provincia":"SO","datastart":"2013-02-24T00:00:00.000","storico":"N","cgb_nord":"5109097","cgb_est":"588704","lng":"10.148256664341748","lat":"46.1296816331299","location":{"latitude":"46.1296816331299","longitude":"10.148256664341748","human_address":"{\"address\": \"\", \"city\": \"\", \"state\": \"\", \"zip\": \"\"}"},":@computed_region_6hky_swhk":"3",":@computed_region_ttgh_9sm5":"3"}
,{"idsensore":"11858","tipologia":"Direzione Vento","unit_dimisura":"°","idstazione":"846","nomestazione":"Edolo Pantano d`Avio","quota":"2108","provincia":"BS","datastart":"2013-02-24T00:00:00.000","storico":"N","cgb_nord":"5114768","cgb_est":"613679","lng":"10.472817754713557","lat":"46.1770002163179","location":{"latitude":"46.1770002163179","longitude":"10.472817754713557","human_address":"{\"address\": \"\", \"city\": \"\", \"state\": \"\", \"zip\": \"\"}"},":@computed_region_6hky_swhk":"6",":@computed_region_ttgh_9sm5":"6"}
,{"idsensore":"11859","tipologia":"Direzione Vento","unit_dimisura":"°","idstazione":"847","nomestazione":"Carona Carisole","quota":"1954","provincia":"BG","datastart":"2012-05-10T00:00:00.000","storico":"N","cgb_nord":"5098634","cgb_est":"561423","lng":"9.793799590056548","lat":"46.03852339399498","location":{"latitude":"46.03852339399498","longitude":"9.793799590056548","human_address":"{\"address\": \"\", \"city\": \"\", \"state\": \"\", \"zip\": \"\"}"},":@computed_region_6hky_swhk":"5",":@computed_region_ttgh_9sm5":"5"}
,{"idsensore":"11860","tipologia":"Direzione Vento","unit_dimisura":"°","idstazione":"848","nomestazione":"Livigno La Vallaccia","quota":"2660","provincia":"SO","datastart":"2012-02-22T00:00:00.000","storico":"N","cgb_nord":"5147768","cgb_est":"591251","lng":"10.188728513795667","lat":"46.47730494291044","location":{"latitude":"46.47730494291044","longitude":"10.188728513795667","human_address":"{\"address\": \"\", \"city\": \"\", \"state\": \"\", \"zip\": \"\"}"},":@computed_region_6hky_swhk":"3",":@computed_region_ttgh_9sm5":"3"}
,{"idsensore":"11861","tipologia":"Direzione Vento","unit_dimisura":"°","idstazione":"900","nomestazione":"Chiari","quota":"140","provincia":"BS","datastart":"2012-03-18T00:00:00.000","storico":"N","cgb_nord":"5041392","cgb_est":"573236","lng":"9.937768713461718","lat":"45.522213315999174","location":{"latitude":"45.522213315999174","longitude":"9.937768713461718","human_address":"{\"address\": \"\", \"city\": \"\", \"state\": \"\", \"zip\": \"\"}"},":@computed_region_6hky_swhk":"6",":@computed_region_ttgh_9sm5":"6"}
,{"idsensore":"11862","tipologia":"Direzione Vento","unit_dimisura":"°","idstazione":"998","nomestazione":"Laveno-Mombello p.zza Matteotti","quota":"207","provincia":"VA","datastart":"2012-05-11T00:00:00.000","storico":"N","cgb_nord":"5084109","cgb_est":"470426","lng":"8.61868470587428","lat":"45.909913257580605","location":{"latitude":"45.909913257580605","longitude":"8.61868470587428","human_address":"{\"address\": \"\", \"city\": \"\", \"state\": \"\", \"zip\": \"\"}"},":@computed_region_6hky_swhk":"1",":@computed_region_ttgh_9sm5":"1"}
,{"idsensore":"11863","tipologia":"Direzione Vento","unit_dimisura":"°","idstazione":"999","nomestazione":"Laveno-Mombello Poggio S.Elsa","quota":"950","provincia":"VA","datastart":"2012-01-22T00:00:00.000","storico":"N","cgb_nord":"5084222","cgb_est":"471939","lng":"8.638185708619893","lat":"45.91099372061516","location":{"latitude":"45.91099372061516","longitude":"8.638185708619893","human_address":"{\"address\": \"\", \"city\": \"\", \"state\": \"\", \"zip\": \"\"}"},":@computed_region_6hky_swhk":"1",":@computed_region_ttgh_9sm5":"1"}
,{"idsensore":"11864","tipologia":"Direzione Vento","unit_dimisura":"°","idstazione":"1202","nomestazione":"Vercana","quota":"980","provincia":"CO","datastart":"2012-06-14T00:00:00.000","storico":"N","cgb_nord":"5114303","cgb_est":"525058","lng":"9.324676976148888","lat":"46.18184257309385","location":{"latitude":"46.18184257309385","longitude":"9.324676976148888","human_address":"{\"address\": \"\", \"city\": \"\", \"state\": \"\", \"zip\": \"\"}"},":@computed_region_6hky_swhk":"2",":@computed_region_ttgh_9sm5":"2"}
,{"idsensore":"11865","tipologia":"Direzione Vento","unit_dimisura":"°","idstazione":"1273","nomestazione":"Val Masino Bagni","quota":"1191","provincia":"SO","datastart":"2012-04-02T00:00:00.000","datastop":"2021-02-12T00:00:00.000","storico":"S","cgb_nord":"5121270","cgb_est":"545980","lng":"9.596430583118106","lat":"46.24345094940859","location":{"latitude":"46.24345094940859","longitude":"9.596430583118106","human_address":"{\"address\": \"\", \"city\": \"\", \"state\": \"\", \"zip\": \"\"}"},":@computed_region_6hky_swhk":"3",":@computed_region_ttgh_9sm5":"3"}
,{"idsensore":"11984","tipologia":"Umidità Relativa","unit_dimisura":"%","idstazione":"851","nomestazione":"Treviso Bresciano Cavacca","quota":"1147","provincia":"BS","datastart":"2012-01-10T00:00:00.000","storico":"N","cgb_nord":"5064493","cgb_est":"616659","lng":"10.49916508690631","lat":"45.724156472747715","location":{"latitude":"45.724156472747715","longitude":"10.49916508690631","human_address":"{\"address\": \"\", \"city\": \"\", \"state\": \"\", \"zip\": \"\"}"},":@computed_region_6hky_swhk":"6",":@computed_region_ttgh_9sm5":"6"}
,{"idsensore":"11988","tipologia":"Livello Idrometrico","unit_dimisura":"cm","idstazione":"1076","nomestazione":"Chiavenna Inferno","quota":"403","provincia":"SO","datastart":"2012-01-13T00:00:00.000","storico":"N","cgb_nord":"5130276","cgb_est":"528984","lng":"9.37652772232262","lat":"46.3254397805223","location":{"latitude":"46.3254397805223","longitude":"9.37652772232262","human_address":"{\"address\": \"\", \"city\": \"\", \"state\": \"\", \"zip\": \"\"}"},":@computed_region_6hky_swhk":"3",":@computed_region_ttgh_9sm5":"3"}
,{"idsensore":"12023","tipologia":"Precipitazione","unit_dimisura":"mm","idstazione":"1297","nomestazione":"Spinadesco v.Battisti","quota":"48","provincia":"CR","datastart":"2011-02-03T00:00:00.000","storico":"N","cgb_nord":"5000087","cgb_est":"573153","lng":"9.930596472272326","lat":"45.150468869856816","location":{"latitude":"45.150468869856816","longitude":"9.930596472272326","human_address":"{\"address\": \"\", \"city\": \"\", \"state\": \"\", \"zip\": \"\"}"},":@computed_region_6hky_swhk":"8",":@computed_region_ttgh_9sm5":"8"}
,{"idsensore":"12025","tipologia":"Temperatura","unit_dimisura":"°C","idstazione":"1297","nomestazione":"Spinadesco v.Battisti","quota":"48","provincia":"CR","datastart":"2011-02-03T00:00:00.000","storico":"N","cgb_nord":"5000087","cgb_est":"573153","lng":"9.930596472272326","lat":"45.150468869856816","location":{"latitude":"45.150468869856816","longitude":"9.930596472272326","human_address":"{\"address\": \"\", \"city\": \"\", \"state\": \"\", \"zip\": \"\"}"},":@computed_region_6hky_swhk":"8",":@computed_region_ttgh_9sm5":"8"}
,{"idsensore":"12026","tipologia":"Umidità Relativa","unit_dimisura":"%","idstazione":"1297","nomestazione":"Spinadesco v.Battisti","quota":"48","provincia":"CR","datastart":"2011-02-03T00:00:00.000","storico":"N","cgb_nord":"5000087","cgb_est":"573153","lng":"9.930596472272326","lat":"45.150468869856816","location":{"latitude":"45.150468869856816","longitude":"9.930596472272326","human_address":"{\"address\": \"\", \"city\": \"\", \"state\": \"\", \"zip\": \"\"}"},":@computed_region_6hky_swhk":"8",":@computed_region_ttgh_9sm5":"8"}
,{"idsensore":"121","tipologia":"Temperatura","unit_dimisura":"°C","idstazione":"60","nomestazione":"Villa di Chiavenna","quota":"665","provincia":"SO","datastart":"2002-11-20T00:00:00.000","storico":"N","cgb_nord":"5131062","cgb_est":"539410","lng":"9.512031889439431","lat":"46.33198716063755","location":{"latitude":"46.33198716063755","longitude":"9.512031889439431","human_address":"{\"address\": \"\", \"city\": \"\", \"state\": \"\", \"zip\": \"\"}"},":@computed_region_6hky_swhk":"3",":@computed_region_ttgh_9sm5":"3"}
,{"idsensore":"122","tipologia":"Precipitazione","unit_dimisura":"mm","idstazione":"60","nomestazione":"Villa di Chiavenna","quota":"665","provincia":"SO","datastart":"2002-11-20T00:00:00.000","storico":"N","cgb_nord":"5131062","cgb_est":"539410","lng":"9.512031889439431","lat":"46.33198716063755","location":{"latitude":"46.33198716063755","longitude":"9.512031889439431","human_address":"{\"address\": \"\", \"city\": \"\", \"state\": \"\", \"zip\": \"\"}"},":@computed_region_6hky_swhk":"3",":@computed_region_ttgh_9sm5":"3"}
,{"idsensore":"123","tipologia":"Livello Idrometrico","unit_dimisura":"cm","idstazione":"60","nomestazione":"Villa di Chiavenna","quota":"665","provincia":"SO","datastart":"2002-11-20T00:00:00.000","datastop":"2009-09-15T00:00:00.000","storico":"S","cgb_nord":"5131062","cgb_est":"539410","lng":"9.512031889439431","lat":"46.33198716063755","location":{"latitude":"46.33198716063755","longitude":"9.512031889439431","human_address":"{\"address\": \"\", \"city\": \"\", \"state\": \"\", \"zip\": \"\"}"},":@computed_region_6hky_swhk":"3",":@computed_region_ttgh_9sm5":"3"}
,{"idsensore":"12712","tipologia":"Direzione Vento","unit_dimisura":"°","idstazione":"125","nomestazione":"Castello d'Agogna","quota":"106","provincia":"PV","datastart":"2020-05-22T00:00:00.000","storico":"N","cgb_nord":"5010411","cgb_est":"476502","lng":"8.700571652227913","lat":"45.246800446962254","location":{"latitude":"45.246800446962254","longitude":"8.700571652227913","human_address":"{\"address\": \"\", \"city\": \"\", \"state\": \"\", \"zip\": \"\"}"},":@computed_region_6hky_swhk":"7",":@computed_region_ttgh_9sm5":"7"}
,{"idsensore":"12713","tipologia":"Velocità Vento","unit_dimisura":"m/s","idstazione":"125","nomestazione":"Castello d'Agogna","quota":"106","provincia":"PV","datastart":"2020-05-21T00:00:00.000","storico":"N","cgb_nord":"5010411","cgb_est":"476502","lng":"8.700571652227913","lat":"45.246800446962254","location":{"latitude":"45.246800446962254","longitude":"8.700571652227913","human_address":"{\"address\": \"\", \"city\": \"\", \"state\": \"\", \"zip\": \"\"}"},":@computed_region_6hky_swhk":"7",":@computed_region_ttgh_9sm5":"7"}
,{"idsensore":"12716","tipologia":"Temperatura","unit_dimisura":"°C","idstazione":"1899","nomestazione":"Bereguardo Fornasetta","quota":"95","provincia":"PV","datastart":"2020-08-11T00:00:00.000","storico":"N","cgb_nord":"5012143","cgb_est":"501719","lng":"9.021910873269455","lat":"45.26278148198283","location":{"latitude":"45.26278148198283","longitude":"9.021910873269455","human_address":"{\"address\": \"\", \"city\": \"\", \"state\": \"\", \"zip\": \"\"}"},":@computed_region_6hky_swhk":"7",":@computed_region_ttgh_9sm5":"7"}
,{"idsensore":"12719","tipologia":"Umidità Relativa","unit_dimisura":"%","idstazione":"1899","nomestazione":"Bereguardo Fornasetta","quota":"95","provincia":"PV","datastart":"2020-08-11T00:00:00.000","storico":"N","cgb_nord":"5012143","cgb_est":"501719","lng":"9.021910873269455","lat":"45.26278148198283","location":{"latitude":"45.26278148198283","longitude":"9.021910873269455","human_address":"{\"address\": \"\", \"city\": \"\", \"state\": \"\", \"zip\": \"\"}"},":@computed_region_6hky_swhk":"7",":@computed_region_ttgh_9sm5":"7"}
,{"idsensore":"12720","tipologia":"Direzione Vento","unit_dimisura":"°","idstazione":"1899","nomestazione":"Bereguardo Fornasetta","quota":"95","provincia":"PV","datastart":"2020-08-16T00:00:00.000","storico":"N","cgb_nord":"5012143","cgb_est":"501719","lng":"9.021910873269455","lat":"45.26278148198283","location":{"latitude":"45.26278148198283","longitude":"9.021910873269455","human_address":"{\"address\": \"\", \"city\": \"\", \"state\": \"\", \"zip\": \"\"}"},":@computed_region_6hky_swhk":"7",":@computed_region_ttgh_9sm5":"7"}
,{"idsensore":"12722","tipologia":"Velocità Vento","unit_dimisura":"m/s","idstazione":"1899","nomestazione":"Bereguardo Fornasetta","quota":"95","provincia":"PV","datastart":"2020-08-16T00:00:00.000","storico":"N","cgb_nord":"5012143","cgb_est":"501719","lng":"9.021910873269455","lat":"45.26278148198283","location":{"latitude":"45.26278148198283","longitude":"9.021910873269455","human_address":"{\"address\": \"\", \"city\": \"\", \"state\": \"\", \"zip\": \"\"}"},":@computed_region_6hky_swhk":"7",":@computed_region_ttgh_9sm5":"7"}
,{"idsensore":"12724","tipologia":"Precipitazione","unit_dimisura":"mm","idstazione":"1899","nomestazione":"Bereguardo Fornasetta","quota":"95","provincia":"PV","datastart":"2020-08-11T00:00:00.000","storico":"N","cgb_nord":"5012143","cgb_est":"501719","lng":"9.021910873269455","lat":"45.26278148198283","location":{"latitude":"45.26278148198283","longitude":"9.021910873269455","human_address":"{\"address\": \"\", \"city\": \"\", \"state\": \"\", \"zip\": \"\"}"},":@computed_region_6hky_swhk":"7",":@computed_region_ttgh_9sm5":"7"}
,{"idsensore":"12728","tipologia":"Radiazione Globale","unit_dimisura":"W/m²","idstazione":"1974","nomestazione":"Grone San Fermo","quota":"1246","provincia":"BG","datastart":"2020-08-30T00:00:00.000","storico":"N","cgb_nord":"5066048","cgb_est":"572800","lng":"9.935872972330552","lat":"45.744156277136966","location":{"latitude":"45.744156277136966","longitude":"9.935872972330552","human_address":"{\"address\": \"\", \"city\": \"\", \"state\": \"\", \"zip\": \"\"}"},":@computed_region_6hky_swhk":"5",":@computed_region_ttgh_9sm5":"5"}
,{"idsensore":"12745","tipologia":"Altezza Neve","unit_dimisura":"cm","idstazione":"857","nomestazione":"Santa Margherita di Staffora Passo del Giovà","quota":"1363","provincia":"PV","datastart":"2020-12-01T00:00:00.000","storico":"N","cgb_nord":"4947846","cgb_est":"517168","lng":"9.216637428084992","lat":"44.68377850348632","location":{"latitude":"44.68377850348632","longitude":"9.216637428084992","human_address":"{\"address\": \"\", \"city\": \"\", \"state\": \"\", \"zip\": \"\"}"},":@computed_region_6hky_swhk":"7",":@computed_region_ttgh_9sm5":"7"}
,{"idsensore":"12753","tipologia":"Altezza Neve","unit_dimisura":"cm","idstazione":"28","nomestazione":"Chiesa in Valmalenco Alpe Entova","quota":"1905","provincia":"SO","datastart":"2020-12-01T00:00:00.000","storico":"N","cgb_nord":"5130098","cgb_est":"564213","lng":"9.834123382219671","lat":"46.32141528836431","location":{"latitude":"46.32141528836431","longitude":"9.834123382219671","human_address":"{\"address\": \"\", \"city\": \"\", \"state\": \"\", \"zip\": \"\"}"},":@computed_region_6hky_swhk":"3",":@computed_region_ttgh_9sm5":"3"}
,{"idsensore":"12754","tipologia":"Umidità Relativa","unit_dimisura":"°C","idstazione":"28","nomestazione":"Chiesa in Valmalenco Alpe Entova","quota":"1905","provincia":"SO","datastart":"2020-11-18T00:00:00.000","storico":"N","cgb_nord":"5130098","cgb_est":"564213","lng":"9.834123382219671","lat":"46.32141528836431","location":{"latitude":"46.32141528836431","longitude":"9.834123382219671","human_address":"{\"address\": \"\", \"city\": \"\", \"state\": \"\", \"zip\": \"\"}"},":@computed_region_6hky_swhk":"3",":@computed_region_ttgh_9sm5":"3"}
,{"idsensore":"12755","tipologia":"Temperatura","unit_dimisura":"°C","idstazione":"1510","nomestazione":"Monza v.Monte Generoso","quota":"173","provincia":"MB","datastart":"2020-11-25T00:00:00.000","storico":"N","cgb_nord":"5048372","cgb_est":"519174","lng":"9.245807488805221","lat":"45.58862552802921","location":{"latitude":"45.58862552802921","longitude":"9.245807488805221","human_address":"{\"address\": \"\", \"city\": \"\", \"state\": \"\", \"zip\": \"\"}"},":@computed_region_6hky_swhk":"12",":@computed_region_ttgh_9sm5":"12"}
,{"idsensore":"12756","tipologia":"Umidità Relativa","unit_dimisura":"%","idstazione":"1510","nomestazione":"Monza v.Monte Generoso","quota":"173","provincia":"MB","datastart":"2020-11-25T00:00:00.000","storico":"N","cgb_nord":"5048372","cgb_est":"519174","lng":"9.245807488805221","lat":"45.58862552802921","location":{"latitude":"45.58862552802921","longitude":"9.245807488805221","human_address":"{\"address\": \"\", \"city\": \"\", \"state\": \"\", \"zip\": \"\"}"},":@computed_region_6hky_swhk":"12",":@computed_region_ttgh_9sm5":"12"}
,{"idsensore":"12757","tipologia":"Temperatura","unit_dimisura":"°C","idstazione":"1511","nomestazione":"Rescaldina","quota":"215","provincia":"MI","datastart":"2020-11-25T00:00:00.000","storico":"N","cgb_nord":"5050479","cgb_est":"496327","lng":"8.95289667553321","lat":"45.60784533497315","location":{"latitude":"45.60784533497315","longitude":"8.95289667553321","human_address":"{\"address\": \"\", \"city\": \"\", \"state\": \"\", \"zip\": \"\"}"},":@computed_region_6hky_swhk":"4",":@computed_region_ttgh_9sm5":"4"}
,{"idsensore":"12758","tipologia":"Umidità Relativa","unit_dimisura":"%","idstazione":"1511","nomestazione":"Rescaldina","quota":"215","provincia":"MI","datastart":"2020-11-25T00:00:00.000","storico":"N","cgb_nord":"5050479","cgb_est":"496327","lng":"8.95289667553321","lat":"45.60784533497315","location":{"latitude":"45.60784533497315","longitude":"8.95289667553321","human_address":"{\"address\": \"\", \"city\": \"\", \"state\": \"\", \"zip\": \"\"}"},":@computed_region_6hky_swhk":"4",":@computed_region_ttgh_9sm5":"4"}
,{"idsensore":"12759","tipologia":"Temperatura","unit_dimisura":"°C","idstazione":"1512","nomestazione":"Pogliano Milanese","quota":"160","provincia":"MI","datastart":"2020-11-25T00:00:00.000","storico":"N","cgb_nord":"5042449","cgb_est":"500406","lng":"9.005199956067523","lat":"45.535576719250145","location":{"latitude":"45.535576719250145","longitude":"9.005199956067523","human_address":"{\"address\": \"\", \"city\": \"\", \"state\": \"\", \"zip\": \"\"}"},":@computed_region_6hky_swhk":"4",":@computed_region_ttgh_9sm5":"4"}
,{"idsensore":"12760","tipologia":"Umidità Relativa","unit_dimisura":"%","idstazione":"1512","nomestazione":"Pogliano Milanese","quota":"160","provincia":"MI","datastart":"2020-11-24T00:00:00.000","storico":"N","cgb_nord":"5042449","cgb_est":"500406","lng":"9.005199956067523","lat":"45.535576719250145","location":{"latitude":"45.535576719250145","longitude":"9.005199956067523","human_address":"{\"address\": \"\", \"city\": \"\", \"state\": \"\", \"zip\": \"\"}"},":@computed_region_6hky_swhk":"4",":@computed_region_ttgh_9sm5":"4"}
,{"idsensore":"12761","tipologia":"Altezza Neve","unit_dimisura":"cm","idstazione":"1420","nomestazione":"Gordona","quota":"1362","provincia":"SO","datastart":"2020-12-02T00:00:00.000","storico":"N","cgb_nord":"5126494","cgb_est":"526127","lng":"9.339203152913957","lat":"46.29151911107429","location":{"latitude":"46.29151911107429","longitude":"9.339203152913957","human_address":"{\"address\": \"\", \"city\": \"\", \"state\": \"\", \"zip\": \"\"}"},":@computed_region_6hky_swhk":"3",":@computed_region_ttgh_9sm5":"3"}
,{"idsensore":"13","tipologia":"Temperatura","unit_dimisura":"°C","idstazione":"6","nomestazione":"Bormio Ponte sul  Frodolfo","quota":"1250","provincia":"SO","datastart":"1987-11-25T00:00:00.000","storico":"N","cgb_nord":"5146642","cgb_est":"605400","lng":"10.372742774828684","lat":"46.46511042549073","location":{"latitude":"46.46511042549073","longitude":"10.372742774828684","human_address":"{\"address\": \"\", \"city\": \"\", \"state\": \"\", \"zip\": \"\"}"},":@computed_region_6hky_swhk":"3",":@computed_region_ttgh_9sm5":"3"}
,{"idsensore":"133","tipologia":"Temperatura","unit_dimisura":"°C","idstazione":"61","nomestazione":"Valdisotto Arginone","quota":"1050","provincia":"SO","datastart":"2006-06-05T00:00:00.000","storico":"N","cgb_nord":"5137647","cgb_est":"604113","lng":"10.353980048858165","lat":"46.384380971659404","location":{"latitude":"46.384380971659404","longitude":"10.353980048858165","human_address":"{\"address\": \"\", \"city\": \"\", \"state\": \"\", \"zip\": \"\"}"},":@computed_region_6hky_swhk":"3",":@computed_region_ttgh_9sm5":"3"}
,{"idsensore":"1346","tipologia":"Temperatura","unit_dimisura":"°C","idstazione":"27","nomestazione":"Chiesa in Valmalenco Alpe dell' Oro","quota":"2040","provincia":"SO","datastart":"2011-01-01T00:00:00.000","storico":"N","cgb_nord":"5130048","cgb_est":"558743","lng":"9.76306882659023","lat":"46.321461574123596","location":{"latitude":"46.321461574123596","longitude":"9.76306882659023","human_address":"{\"address\": \"\", \"city\": \"\", \"state\": \"\", \"zip\": \"\"}"},":@computed_region_6hky_swhk":"3",":@computed_region_ttgh_9sm5":"3"}
,{"idsensore":"135","tipologia":"Precipitazione","unit_dimisura":"mm","idstazione":"61","nomestazione":"Valdisotto Arginone","quota":"1050","provincia":"SO","datastart":"2007-01-01T00:00:00.000","storico":"N","cgb_nord":"5137647","cgb_est":"604113","lng":"10.353980048858165","lat":"46.384380971659404","location":{"latitude":"46.384380971659404","longitude":"10.353980048858165","human_address":"{\"address\": \"\", \"city\": \"\", \"state\": \"\", \"zip\": \"\"}"},":@computed_region_6hky_swhk":"3",":@computed_region_ttgh_9sm5":"3"}
,{"idsensore":"1366","tipologia":"Precipitazione","unit_dimisura":"mm","idstazione":"78","nomestazione":"Tirano Monte Masuccio","quota":"1750","provincia":"SO","datastart":"2011-01-01T00:00:00.000","storico":"N","cgb_nord":"5121837","cgb_est":"590452","lng":"10.17331625898132","lat":"46.244088713270024","location":{"latitude":"46.244088713270024","longitude":"10.17331625898132","human_address":"{\"address\": \"\", \"city\": \"\", \"state\": \"\", \"zip\": \"\"}"},":@computed_region_6hky_swhk":"3",":@computed_region_ttgh_9sm5":"3"}
,{"idsensore":"1367","tipologia":"Temperatura","unit_dimisura":"°C","idstazione":"78","nomestazione":"Tirano Monte Masuccio","quota":"1750","provincia":"SO","datastart":"2011-01-01T00:00:00.000","storico":"N","cgb_nord":"5121837","cgb_est":"590452","lng":"10.17331625898132","lat":"46.244088713270024","location":{"latitude":"46.244088713270024","longitude":"10.17331625898132","human_address":"{\"address\": \"\", \"city\": \"\", \"state\": \"\", \"zip\": \"\"}"},":@computed_region_6hky_swhk":"3",":@computed_region_ttgh_9sm5":"3"}
,{"idsensore":"1368","tipologia":"Altezza Neve","unit_dimisura":"cm","idstazione":"78","nomestazione":"Tirano Monte Masuccio","quota":"1750","provincia":"SO","datastart":"2010-08-24T00:00:00.000","storico":"N","cgb_nord":"5121837","cgb_est":"590452","lng":"10.17331625898132","lat":"46.244088713270024","location":{"latitude":"46.244088713270024","longitude":"10.17331625898132","human_address":"{\"address\": \"\", \"city\": \"\", \"state\": \"\", \"zip\": \"\"}"},":@computed_region_6hky_swhk":"3",":@computed_region_ttgh_9sm5":"3"}
,{"idsensore":"139","tipologia":"Altezza Neve","unit_dimisura":"cm","idstazione":"61","nomestazione":"Valdisotto Arginone","quota":"1050","provincia":"SO","datastart":"2006-06-05T00:00:00.000","storico":"N","cgb_nord":"5137647","cgb_est":"604113","lng":"10.353980048858165","lat":"46.384380971659404","location":{"latitude":"46.384380971659404","longitude":"10.353980048858165","human_address":"{\"address\": \"\", \"city\": \"\", \"state\": \"\", \"zip\": \"\"}"},":@computed_region_6hky_swhk":"3",":@computed_region_ttgh_9sm5":"3"}
,{"idsensore":"14001","tipologia":"Umidità Relativa","unit_dimisura":"%","idstazione":"1077","nomestazione":"Oltre il Colle Zambla","quota":"1138","provincia":"BG","datastart":"2012-01-13T00:00:00.000","storico":"N","cgb_nord":"5082261","cgb_est":"561209","lng":"9.78893967466926","lat":"45.891193045896635","location":{"latitude":"45.891193045896635","longitude":"9.78893967466926","human_address":"{\"address\": \"\", \"city\": \"\", \"state\": \"\", \"zip\": \"\"}"},":@computed_region_6hky_swhk":"5",":@computed_region_ttgh_9sm5":"5"}
,{"idsensore":"14004","tipologia":"Direzione Vento","unit_dimisura":"°","idstazione":"1077","nomestazione":"Oltre il Colle Zambla","quota":"1138","provincia":"BG","datastart":"2013-10-14T00:00:00.000","storico":"N","cgb_nord":"5082261","cgb_est":"561209","lng":"9.78893967466926","lat":"45.891193045896635","location":{"latitude":"45.891193045896635","longitude":"9.78893967466926","human_address":"{\"address\": \"\", \"city\": \"\", \"state\": \"\", \"zip\": \"\"}"},":@computed_region_6hky_swhk":"5",":@computed_region_ttgh_9sm5":"5"}
,{"idsensore":"14005","tipologia":"Velocità Vento","unit_dimisura":"m/s","idstazione":"1077","nomestazione":"Oltre il Colle Zambla","quota":"1138","provincia":"BG","datastart":"2012-01-13T00:00:00.000","storico":"N","cgb_nord":"5082261","cgb_est":"561209","lng":"9.78893967466926","lat":"45.891193045896635","location":{"latitude":"45.891193045896635","longitude":"9.78893967466926","human_address":"{\"address\": \"\", \"city\": \"\", \"state\": \"\", \"zip\": \"\"}"},":@computed_region_6hky_swhk":"5",":@computed_region_ttgh_9sm5":"5"}
,{"idsensore":"14014","tipologia":"Temperatura","unit_dimisura":"°C","idstazione":"1077","nomestazione":"Oltre il Colle Zambla","quota":"1138","provincia":"BG","datastart":"2012-01-13T00:00:00.000","storico":"N","cgb_nord":"5082261","cgb_est":"561209","lng":"9.78893967466926","lat":"45.891193045896635","location":{"latitude":"45.891193045896635","longitude":"9.78893967466926","human_address":"{\"address\": \"\", \"city\": \"\", \"state\": \"\", \"zip\": \"\"}"},":@computed_region_6hky_swhk":"5",":@computed_region_ttgh_9sm5":"5"}
,{"idsensore":"14018","tipologia":"Precipitazione","unit_dimisura":"mm","idstazione":"1077","nomestazione":"Oltre il Colle Zambla","quota":"1138","provincia":"BG","datastart":"2012-01-13T00:00:00.000","storico":"N","cgb_nord":"5082261","cgb_est":"561209","lng":"9.78893967466926","lat":"45.891193045896635","location":{"latitude":"45.891193045896635","longitude":"9.78893967466926","human_address":"{\"address\": \"\", \"city\": \"\", \"state\": \"\", \"zip\": \"\"}"},":@computed_region_6hky_swhk":"5",":@computed_region_ttgh_9sm5":"5"}
,{"idsensore":"14019","tipologia":"Radiazione Globale","unit_dimisura":"W/m²","idstazione":"1077","nomestazione":"Oltre il Colle Zambla","quota":"1138","provincia":"BG","datastart":"2012-01-13T00:00:00.000","storico":"N","cgb_nord":"5082261","cgb_est":"561209","lng":"9.78893967466926","lat":"45.891193045896635","location":{"latitude":"45.891193045896635","longitude":"9.78893967466926","human_address":"{\"address\": \"\", \"city\": \"\", \"state\": \"\", \"zip\": \"\"}"},":@computed_region_6hky_swhk":"5",":@computed_region_ttgh_9sm5":"5"}
,{"idsensore":"14021","tipologia":"Livello Idrometrico","unit_dimisura":"cm","idstazione":"1078","nomestazione":"Orio Litta SS234","quota":"196","provincia":"LO","datastart":"2012-01-24T00:00:00.000","datastop":"2018-09-18T00:00:00.000","storico":"S","cgb_nord":"5001496","cgb_est":"541819","lng":"9.532131039528538","lat":"45.16570401703093","location":{"latitude":"45.16570401703093","longitude":"9.532131039528538","human_address":"{\"address\": \"\", \"city\": \"\", \"state\": \"\", \"zip\": \"\"}"},":@computed_region_6hky_swhk":"11",":@computed_region_ttgh_9sm5":"11"}
,{"idsensore":"14024","tipologia":"Livello Idrometrico","unit_dimisura":"cm","idstazione":"1079","nomestazione":"Sesto Calende alzaia","quota":"58","provincia":"VA","datastart":"2012-01-23T00:00:00.000","storico":"N","cgb_nord":"5063460","cgb_est":"471791","lng":"8.637492070417693","lat":"45.72412027585781","location":{"latitude":"45.72412027585781","longitude":"8.637492070417693","human_address":"{\"address\": \"\", \"city\": \"\", \"state\": \"\", \"zip\": \"\"}"},":@computed_region_6hky_swhk":"1",":@computed_region_ttgh_9sm5":"1"}
,{"idsensore":"14030","tipologia":"Direzione Vento","unit_dimisura":"°","idstazione":"1211","nomestazione":"Castronno","quota":"379","provincia":"VA","datastart":"2012-02-12T00:00:00.000","storico":"N","cgb_nord":"5066146","cgb_est":"486058","lng":"8.82075558870268","lat":"45.748730816584875","location":{"latitude":"45.748730816584875","longitude":"8.82075558870268","human_address":"{\"address\": \"\", \"city\": \"\", \"state\": \"\", \"zip\": \"\"}"},":@computed_region_6hky_swhk":"1",":@computed_region_ttgh_9sm5":"1"}
,{"idsensore":"14038","tipologia":"Radiazione Globale","unit_dimisura":"W/m²","idstazione":"836","nomestazione":"Aprica","quota":"1950","provincia":"SO","datastart":"2012-02-27T00:00:00.000","storico":"N","cgb_nord":"5109097","cgb_est":"588704","lng":"10.148256664341748","lat":"46.1296816331299","location":{"latitude":"46.1296816331299","longitude":"10.148256664341748","human_address":"{\"address\": \"\", \"city\": \"\", \"state\": \"\", \"zip\": \"\"}"},":@computed_region_6hky_swhk":"3",":@computed_region_ttgh_9sm5":"3"}
,{"idsensore":"14039","tipologia":"Umidità Relativa","unit_dimisura":"%","idstazione":"836","nomestazione":"Aprica","quota":"1950","provincia":"SO","datastart":"2012-02-27T00:00:00.000","storico":"N","cgb_nord":"5109097","cgb_est":"588704","lng":"10.148256664341748","lat":"46.1296816331299","location":{"latitude":"46.1296816331299","longitude":"10.148256664341748","human_address":"{\"address\": \"\", \"city\": \"\", \"state\": \"\", \"zip\": \"\"}"},":@computed_region_6hky_swhk":"3",":@computed_region_ttgh_9sm5":"3"}
,{"idsensore":"14047","tipologia":"Direzione Vento","unit_dimisura":"°","idstazione":"150","nomestazione":"Pieve San Giacomo","quota":"39","provincia":"CR","datastart":"2012-02-27T00:00:00.000","storico":"N","cgb_nord":"4997179","cgb_est":"594005","lng":"10.195261229381748","lat":"45.12182840590846","location":{"latitude":"45.12182840590846","longitude":"10.195261229381748","human_address":"{\"address\": \"\", \"city\": \"\", \"state\": \"\", \"zip\": \"\"}"},":@computed_region_6hky_swhk":"8",":@computed_region_ttgh_9sm5":"8"}
,{"idsensore":"14055","tipologia":"Umidità Relativa","unit_dimisura":"%","idstazione":"1324","nomestazione":"Limone sul Garda","quota":"75","provincia":"BS","datastart":"2012-03-13T00:00:00.000","storico":"N","cgb_nord":"5074143","cgb_est":"639088","lng":"10.790041404031163","lat":"45.80682631535527","location":{"latitude":"45.80682631535527","longitude":"10.790041404031163","human_address":"{\"address\": \"\", \"city\": \"\", \"state\": \"\", \"zip\": \"\"}"},":@computed_region_6hky_swhk":"6",":@computed_region_ttgh_9sm5":"6"}
,{"idsensore":"14058","tipologia":"Temperatura","unit_dimisura":"°C","idstazione":"1324","nomestazione":"Limone sul Garda","quota":"75","provincia":"BS","datastart":"2012-03-13T00:00:00.000","storico":"N","cgb_nord":"5074143","cgb_est":"639088","lng":"10.790041404031163","lat":"45.80682631535527","location":{"latitude":"45.80682631535527","longitude":"10.790041404031163","human_address":"{\"address\": \"\", \"city\": \"\", \"state\": \"\", \"zip\": \"\"}"},":@computed_region_6hky_swhk":"6",":@computed_region_ttgh_9sm5":"6"}
,{"idsensore":"14061","tipologia":"Velocità Vento","unit_dimisura":"m/s","idstazione":"1324","nomestazione":"Limone sul Garda","quota":"75","provincia":"BS","datastart":"2012-03-13T00:00:00.000","storico":"N","cgb_nord":"5074143","cgb_est":"639088","lng":"10.790041404031163","lat":"45.80682631535527","location":{"latitude":"45.80682631535527","longitude":"10.790041404031163","human_address":"{\"address\": \"\", \"city\": \"\", \"state\": \"\", \"zip\": \"\"}"},":@computed_region_6hky_swhk":"6",":@computed_region_ttgh_9sm5":"6"}
,{"idsensore":"14062","tipologia":"Direzione Vento","unit_dimisura":"°","idstazione":"1324","nomestazione":"Limone sul Garda","quota":"75","provincia":"BS","datastart":"2012-03-13T00:00:00.000","storico":"N","cgb_nord":"5074143","cgb_est":"639088","lng":"10.790041404031163","lat":"45.80682631535527","location":{"latitude":"45.80682631535527","longitude":"10.790041404031163","human_address":"{\"address\": \"\", \"city\": \"\", \"state\": \"\", \"zip\": \"\"}"},":@computed_region_6hky_swhk":"6",":@computed_region_ttgh_9sm5":"6"}
,{"idsensore":"14072","tipologia":"Umidità Relativa","unit_dimisura":"%","idstazione":"1325","nomestazione":"Collio Memmo","quota":"1069","provincia":"BS","datastart":"2012-03-15T00:00:00.000","storico":"N","cgb_nord":"5073930","cgb_est":"602209","lng":"10.315518370560413","lat":"45.81135931846123","location":{"latitude":"45.81135931846123","longitude":"10.315518370560413","human_address":"{\"address\": \"\", \"city\": \"\", \"state\": \"\", \"zip\": \"\"}"},":@computed_region_6hky_swhk":"6",":@computed_region_ttgh_9sm5":"6"}
,{"idsensore":"14075","tipologia":"Temperatura","unit_dimisura":"°C","idstazione":"1325","nomestazione":"Collio Memmo","quota":"1069","provincia":"BS","datastart":"2012-03-15T00:00:00.000","storico":"N","cgb_nord":"5073930","cgb_est":"602209","lng":"10.315518370560413","lat":"45.81135931846123","location":{"latitude":"45.81135931846123","longitude":"10.315518370560413","human_address":"{\"address\": \"\", \"city\": \"\", \"state\": \"\", \"zip\": \"\"}"},":@computed_region_6hky_swhk":"6",":@computed_region_ttgh_9sm5":"6"}
,{"idsensore":"14078","tipologia":"Velocità Vento","unit_dimisura":"m/s","idstazione":"1325","nomestazione":"Collio Memmo","quota":"1069","provincia":"BS","datastart":"2012-03-15T00:00:00.000","storico":"N","cgb_nord":"5073930","cgb_est":"602209","lng":"10.315518370560413","lat":"45.81135931846123","location":{"latitude":"45.81135931846123","longitude":"10.315518370560413","human_address":"{\"address\": \"\", \"city\": \"\", \"state\": \"\", \"zip\": \"\"}"},":@computed_region_6hky_swhk":"6",":@computed_region_ttgh_9sm5":"6"}
,{"idsensore":"14079","tipologia":"Direzione Vento","unit_dimisura":"°","idstazione":"1325","nomestazione":"Collio Memmo","quota":"1069","provincia":"BS","datastart":"2012-03-15T00:00:00.000","storico":"N","cgb_nord":"5073930","cgb_est":"602209","lng":"10.315518370560413","lat":"45.81135931846123","location":{"latitude":"45.81135931846123","longitude":"10.315518370560413","human_address":"{\"address\": \"\", \"city\": \"\", \"state\": \"\", \"zip\": \"\"}"},